Account ID,Account Name,State,Entity Type,Owner,Population,Account Status,Tier,SQO Points,Lat,Lng,Starbridge Buyer ID,Opp Status,Stage,Funnel Position,Sourced By,Discovery Call Date,Created Date,ARR,Previously Lost,Total Calls,Last Call Date,Calls - Emily Murnane,Calls - Lucy Nemerov,Calls - Ryan Minter,Calls - Leila Assil,Calls - Alicia Gopal,Calls - Blake Anderson,Calls - Joe del Rosario,Calls - Quinzel Perry,Calls - Jenny Allison,Calls - Catherine Silvestri,Calls - Shane Lieberman,Salesforce ID
001Hr000028ZbWm,"City Of Mission, TX",Texas,Municipality,Blake Anderson,86223,Open Opportunity,Tier S,2.0,26.2159,-98.3253,44c4a941-e693-421b-a2da-c10e128c88c4,Open,Meeting Booked,Top of Funnel,Blake Anderson,5/22/2026,5/15/2026,,,8,2026-05-22,,,3,,,5,,,,,,
001Hr000028ZbWn,"Town Of Sunnyvale, TX",Texas,Municipality,Emily Murnane,8062,Open Opportunity,Tier 3,0.75,32.7965,-96.5608,a8c4008d-c8b5-443a-ba17-e7d809fe280d,Open,Meeting Booked,Top of Funnel,Emily Murnane,9/15/2025,9/4/2025,,,21,2026-02-17,21,,,,,,,,,,,
001Hr000028ZbdX,City of Grand Prairie,Texas,Municipality,Blake Anderson,195992,,Tier S,2.0,32.746,-96.9978,f1b670bc-06b4-4607-ac02-5439427ca502,,,,,,,,,1,2026-03-09,,,1,,,,,,,,,
001Hr000028ZbmC,"Town Of Prosper, TX",Texas,Municipality,Blake Anderson,34136,,Tier 1,1.5,33.248,-96.7851,04495b74-d5b7-4696-b6f9-20b1afda2964,,,,,,,,,10,2025-12-12,1,,,9,,,,,,,,
001Hr000028ZbmF,"City Of Nacogdoches, TX",Texas,Municipality,Blake Anderson,32118,,Tier 1,1.5,31.6039,-94.656,5ce103d4-5452-428b-a6d3-aac1334f0919,,,,,,,,,8,2026-05-07,7,,,,,1,,,,,,
001Hr000028Zbmq,"City Of Burleson, TX",Texas,Municipality,Blake Anderson,51618,,Tier S,2.0,32.5424,-97.3231,9ce27d56-69ed-41a6-9d5f-ab54a28f922c,,,,,,,,,5,2026-04-17,1,,1,3,,,,,,,,
001Hr000028Zbmx,"City Of Seabrook, TX",Texas,Municipality,Emily Murnane,13560,1+ Module Live,Tier 2,1.0,29.5641,-95.0255,9eff36d4-1b0b-4ba8-a833-9dadb6f9a442,Closed Won,,,Leila Assil,4/1/2025,3/28/2025,"$24,000",,,,,,,,,,,,,,,
001Hr000028Zbn1,"City Of Jersey Village, TX",Texas,Municipality,Blake Anderson,7731,Recent Competitor Purchase,Tier 3,0.75,29.8877,-95.563,a77e79d6-dd13-4517-a9bf-10aece14675d,Closed Lost,,,Quinzel Perry,2/25/2025,2/13/2025,,,,,,,,,,,,,,,,
001Hr000028Zbn9,"City Of Huntsville, TX",Texas,Municipality,Emily Murnane,46288,Open Opportunity,Tier 1,1.5,30.7235,-95.5508,4ec3cb25-dea4-47e3-b820-8f53b2fa955c,Open,Demo,Mid Funnel,Emily Murnane,3/16/2026,2/10/2026,,,29,2026-03-11,29,,,,,,,,,,,
001Hr000028ZbnA,"City of Sugar Land, TX",Texas,Municipality,Blake Anderson,110272,Nurture,Tier S,2.0,29.5984,-95.6226,1,Closed Lost,,,Granger West,2/19/2025,2/19/2025,,,9,2026-04-24,9,,,,,,,,,,,
001Hr000028ZbnE,"City Of Cleburne, TX",Texas,Municipality,Blake Anderson,31999,,Tier 1,1.5,32.3476,-97.3867,7286d42d-bb1f-4847-8f0e-a648f629eea7,,,,,,,,,3,2026-04-22,3,,,,,,,,,,,
001Hr000028ZbnJ,"City Of Kyle, TX",Texas,Municipality,Lucy Nemerov,51789,Nurture,Tier S,2.0,29.9891,-97.8772,4d4e3ca3-52c5-43c6-ac0c-bb5c3b5a4734,Closed Lost,,,Lucy Nemerov,3/27/2026,3/9/2026,,,30,2026-04-15,,30,,,,,,,,,,
001Hr000028ZbnL,"City Of Woodway, TX",Texas,Municipality,Lucy Nemerov,9474,,Tier 3,0.75,31.506,-97.205,7c4bd0d8-599d-4491-bd68-f454ceec08ad,,,,,,,,,10,2026-02-20,,4,,,6,,,,,,,
001Hr000028ZbnT,"City Of Friendswood, TX",Texas,Municipality,Emily Murnane,41291,,Tier 1,1.5,29.5294,-95.201,58889f19-944f-4a9a-9c9e-883cef533c12,,,,,,,,,19,2026-03-23,19,,,,,,,,,,,
001Hr000028ZbnY,"City Of Southlake, TX",Texas,Municipality,Lucy Nemerov,31105,,Tier 1,1.5,32.9412,-97.1342,a866accb-f2ed-4c74-8c4b-134ffb072815,,,,,,,,,13,2026-02-12,,10,,,3,,,,,,,
001Hr000028Zbnd,"City Of Colleyville, TX",Texas,Municipality,Blake Anderson,25986,,Tier 1,1.5,32.881,-97.155,bf0b50b0-e735-499c-b231-145e55b971b1,,,,,,,,,1,2026-02-25,,,1,,,,,,,,,
001Hr000028Zbni,"City Of Weslaco, TX",Texas,Municipality,Blake Anderson,41024,,Tier 1,1.5,26.1595,-97.9908,5a722d57-91ef-4615-b538-79bc9e39e331,,,,,,,,,16,2026-04-24,5,,,11,,,,,,,,
001Hr000028Zbnj,"Town Of Addison, TX",Texas,Municipality,Blake Anderson,17012,Nurture,Tier 2,1.0,32.9618,-96.8292,391ab97b-d275-4690-8974-2548292f1a37,Closed Lost,,,Asher Rosenfeld,,1/5/2025,,,1,2026-04-14,1,,,,,,,,,,,
001Hr000028Zbnn,"City Of Coppell, TX",Texas,Municipality,Lucy Nemerov,42221,Nurture,Tier 1,1.5,32.9546,-97.015,15672b2f-184d-4d27-957c-c3a6a95113a8,Closed Lost,,,Granger West,4/10/2025,4/9/2025,,,1,2025-11-19,,,,,1,,,,,,,
001Hr000028Zbns,"City Of Cedar Hill, TX",Texas,Municipality,Emily Murnane,48557,Nurture,Tier 1,1.5,32.5885,-96.9561,02f2347b-4fcc-44fc-a80d-0e2646afef1e,Closed Lost,,,Asher Rosenfeld,,1/5/2025,,,12,2026-02-23,12,,,,,,,,,,,
001Hr000028Zbnw,"City Of Pharr, TX",Texas,Municipality,Blake Anderson,79697,Nurture,Tier S,2.0,26.1948,-98.1836,b01ee81a-908b-4eb4-8215-8e1c759845e1,Closed Lost,,,Leila Assil,5/30/2025,5/27/2025,,,5,2026-02-05,,,3,2,,,,,,,,
001Hr000028Zbnx,"City Of Hurst, TX",Texas,Municipality,Emily Murnane,40055,,Tier 1,1.5,32.8235,-97.1706,1af6f7c0-a981-45b9-b23e-642c513d80e5,,,,,,,,,15,2026-03-09,7,,,8,,,,,,,,
001Hr000028Zbo2,"City Of Rosenberg, TX",Texas,Municipality,Blake Anderson,39468,,Tier 1,1.5,29.5572,-95.8086,2e0e6979-09fd-4e82-b394-363a7a7bf8d9,,,,,,,,,4,2025-12-09,,,,,4,,,,,,,
001Hr000028Zbo4,"Orange County, TX",Texas,County,Blake Anderson,85045,Open Opportunity,Tier S,2.0,30.1484,-93.8655,4cbc55f9-1479-44ca-ba2f-2db6944711df,Open,Initial Interest,Top of Funnel,Ryan Minter,,12/4/2025,,,18,2026-04-27,,,18,,,,,,,,,
001Hr000028Zbo7,"City Of Seguin, TX",Texas,Municipality,Blake Anderson,30902,,Tier 1,1.5,29.5689,-97.9646,fbdc9313-5dcc-47b8-a2b3-de4357191ecd,,,,,,,,,39,2026-02-13,4,,,9,26,,,,,,,
001Hr000028ZboC,"City Of Farmers Branch, TX",Texas,Municipality,Blake Anderson,36442,Open Opportunity,Tier 1,1.5,32.9265,-96.8961,4ac62616-5ae6-4a78-9a22-3de6bda3e169,Open,Initial Interest,Top of Funnel,Alicia Gopal,5/6/2026,4/29/2026,,Yes,20,2026-05-04,,,,,20,,,,,,,
001Hr000028ZboO,"City Of Donna, TX",Texas,Municipality,Lucy Nemerov,16821,Open Opportunity,Tier 2,1.0,26.1704,-98.052,77f38917-eefc-4595-bcf8-bc487f8e0085,Open,Sales Qualified,Mid Funnel,Lucy Nemerov,4/29/2026,3/30/2026,,,45,2026-04-29,23,22,,,,,,,,,,
001Hr000028ZboX,"City Of Fulshear, TX",Texas,Municipality,Blake Anderson,73135,All Modules Live,Tier S,2.0,29.69,-95.9,c2231613-bc31-4741-be69-f900943d1759,Closed Won,,,Asher Rosenfeld,,1/5/2025,"$15,500",,,,,,,,,,,,,,,
001Hr000028Zboi,"City Of Lakeway, TX",Texas,Municipality,Blake Anderson,19300,,Tier 2,1.0,30.368,-97.9917,5f8ab714-a866-479f-a0e3-5421ad77d1c2,,,,,,,,,18,2026-04-15,1,,17,,,,,,,,,
001Hr000028Zbom,"City Of Converse, TX",Texas,Municipality,Lucy Nemerov,28643,Nurture,Tier 1,1.5,29.5062,-98.3068,1b6a5272-a8ae-4597-b3e5-5ffe9caa34cb,Closed Lost,,,Troy LeCaire,,1/5/2025,"$26,000",,9,2026-03-13,,8,,1,,,,,,,,
001Hr000028Zbop,"City Of Katy, TX",Texas,Municipality,Lucy Nemerov,24005,,Tier 2,1.0,29.7858,-95.8245,cdf6a6a0-f58d-4306-ad03-c1fe79d47aa7,,,,,,,,,17,2026-03-04,15,2,,,,,,,,,,
001Hr000028Zbor,"City Of Hitchcock, TX",Texas,Municipality,Blake Anderson,7408,Nurture,Tier 3,0.75,29.3483,-95.016,e538aefd-c516-44f8-ae42-dd8d93efd252,,,,,,,,,2,2025-11-03,,,1,1,,,,,,,,
001Hr000028ZbpC,"City Of Fort Stockton, TX",Texas,Municipality,Blake Anderson,8423,Open Opportunity,Tier 3,0.75,30.894,-102.8793,fb0bd8db-37b0-45b3-aa51-273a60a81b21,Open,Proposal,Mid Funnel,Ryan Minter,2/27/2026,2/26/2026,"$20,500",Yes,17,2025-09-29,,,,,,,,17,,,,
001Hr000028ZbpM,"City of Beaumont, TX",Texas,Municipality,Blake Anderson,115013,,Tier S,2.0,30.0802,-94.1266,2beb1ebc-f967-4650-9012-0905bca3d17a,,,,,,,,,1,2025-12-04,,,1,,,,,,,,,
001Hr000028ZbpR,Starr County,Texas,County,Blake Anderson,65568,,Tier S,2.0,26.6215,-98.7481,673251f1-be96-45a0-bd7b-5b8309007692,,,,,,,,,,,,,,,,,,,,,,
001Hr000028ZbpZ,"City Of Schertz, TX",Texas,Municipality,Blake Anderson,42622,,Tier 1,1.5,29.561,-98.2674,2bc832ec-6985-4b75-9471-3473d041f9d9,,,,,,,,,6,2026-04-23,6,,,,,,,,,,,
001Hr000028Zbpd,"City Of Forest Hill, TX",Texas,Municipality,Blake Anderson,13818,Open Opportunity,Tier 2,1.0,32.6601,-97.2699,4f9180c3-ca39-4f4a-8f5b-bcd963616352,Open,Initial Interest,Top of Funnel,Emily Murnane,,9/9/2025,,,4,2025-09-09,4,,,,,,,,,,,
001Hr000028ZbqD,"City Of Rockwall, TX",Texas,Municipality,Emily Murnane,49669,,Tier 1,1.5,32.9091,-96.4501,8f65260d-6576-4a88-828f-f5b407e01038,,,,,,,,,24,2026-04-08,12,,,12,,,,,,,,
001Hr000028ZbqL,"City Of Conroe, TX",Texas,Municipality,Blake Anderson,94400,Open Opportunity,Tier S,2.0,30.3119,-95.4561,bef6dc1a-5733-4605-89fd-79796d72d9fd,Open,Initial Interest,Top of Funnel,Granger West,,2/24/2025,,,2,2025-12-04,,,2,,,,,,,,,
001Hr000028ZbqM,"City Of El Campo, TX",Texas,Municipality,Lucy Nemerov,12290,Open Opportunity,Tier 2,1.0,29.1966,-96.2697,5c7cdac9-63f1-445c-a07c-2713cfb4319d,Open,Initial Interest,Top of Funnel,Lucy Nemerov,5/4/2026,2/9/2026,,,12,2026-05-07,,6,,5,1,,,,,,,
001Hr000028ZbqQ,"City Of Lockhart, TX",Texas,Municipality,Blake Anderson,14844,Open Opportunity,Tier 2,1.0,29.8849,-97.67,b5c42a01-f12b-4871-afd0-e7a1d71d8939,Open,Initial Interest,Top of Funnel,Asher Rosenfeld,,1/5/2025,,,1,2025-11-13,,,1,,,,,,,,,
001Hr000028ZbqW,"City Of Los Fresnos, TX",Texas,Municipality,Lucy Nemerov,8152,Open Opportunity,Tier 3,0.75,26.0717,-97.4764,758fd575-fe24-4475-a6a6-971802e879d9,Open,Demo,Mid Funnel,Lucy Nemerov,2/27/2026,2/24/2026,,,13,2026-05-11,,8,,,,,,,5,,,
001Hr000028Zbqg,"City Of Penitas, TX",Texas,Municipality,Blake Anderson,6399,,Tier 3,0.75,26.2306,-98.4447,7439e19b-9170-44a4-abf9-c4b438c3d254,,,,,,,,,3,2025-09-24,3,,,,,,,,,,,
001Hr000028Zbqo,"City Of Pflugerville, TX",Texas,Municipality,Emily Murnane,66884,Open Opportunity,Tier S,2.0,30.4548,-97.6223,60dd919a-7427-4e8a-a05c-3f75335890d4,Open,Proposal,Mid Funnel,Emily Murnane,2/12/2026,10/2/2025,"$79,000",,13,2026-02-18,12,,,,,,1,,,,,
001Hr000028Zbqw,"City Of Deer Park, TX",Texas,Municipality,Blake Anderson,33676,Open Opportunity,Tier 1,1.5,29.7052,-95.1238,b1b9f1da-134e-4eb4-b572-7337c68f2bde,Open,Initial Interest,Top of Funnel,Granger West,,2/24/2025,,,12,2026-02-26,11,,1,,,,,,,,,
001Hr000028Zbr1,City of Victoria,Texas,Municipality,Lucy Nemerov,65643,,Tier S,2.0,28.8053,-97.0036,c07c8b02-967f-4ec5-b19d-c03ebca00738,,,,,,,,,3,2026-02-09,,2,,,1,,,,,,,
001Hr000028Zbr6,"City Of Missouri City, TX",Texas,Municipality,Blake Anderson,74850,Nurture,Tier S,2.0,29.6026,-95.527,ff248a50-43ae-40af-a910-588c7f2e72d7,Closed Lost,,,Alicia Gopal,11/21/2025,10/29/2025,,,8,2025-12-04,,,1,,7,,,,,,,
001Hr000028ZbrB,"City Of Waxahachie, TX",Texas,Municipality,Blake Anderson,43368,Open Opportunity,Tier 1,1.5,32.3844,-96.85,0ab38fd8-23b4-493f-9394-906161479736,Open,Demo,Mid Funnel,Emily Murnane,4/30/2026,4/23/2026,"$5,000",,18,2026-04-23,5,,,13,,,,,,,,
001Hr000028ZbrC,"City Of University Park, TX",Texas,Municipality,Blake Anderson,25268,Open Opportunity,Tier 1,1.5,32.855,-96.7976,8549e623-fcd4-4dd2-9da4-29c9247ddb89,Open,Initial Interest,Top of Funnel,Emily Murnane,,9/15/2025,,,23,2025-12-16,23,,,,,,,,,,,
001Hr000028ZbrH,"City Of Keller, TX",Texas,Municipality,Lucy Nemerov,45397,,Tier 1,1.5,32.9342,-97.2293,b5755f53-9410-4f20-b14a-68f19e6374b5,,,,,,,,,12,2026-02-12,,9,,,3,,,,,,,
001Hr000028ZbrJ,City of Pearland,Texas,Municipality,Blake Anderson,122609,,Tier S,2.0,29.5636,-95.286,b2d2a4a7-ed30-4eec-a91f-943efffe4839,,,,,,,,,1,2025-12-04,,,1,,,,,,,,,
001Hr000028ZbrL,"City Of Leander, TX",Texas,Municipality,Lucy Nemerov,67124,,Tier S,2.0,30.5788,-97.8531,d85c9c23-015a-4ed4-994d-43b90536bc49,,,,,,,,,5,2026-05-06,,5,,,,,,,,,,
001Hr000028ZbrM,"City Of Balch Springs, TX",Texas,Municipality,Blake Anderson,27160,Cold,Tier 1,1.5,32.7287,-96.6228,f1289393-3367-44a4-9703-7dc70e43dad9,Closed Lost,,,Asher Rosenfeld,,1/5/2025,,,11,2025-10-30,11,,,,,,,,,,,
001Hr000028ZbrN,"Town Of Little Elm, TX",Texas,Municipality,Blake Anderson,51042,Open Opportunity,Tier S,2.0,33.1782,-96.891,e4282f26-24ec-4a81-8b07-dbb08bb19727,Open,Sales Qualified,Mid Funnel,Ryan Minter,3/18/2026,3/11/2026,,,4,2026-03-11,,,4,,,,,,,,,
001Hr000028ZbrQ,"City Of North Richland Hills, TX",Texas,Municipality,Blake Anderson,70209,Open Opportunity,Tier S,2.0,32.8343,-97.2289,2f411ac5-8cd4-4e56-be72-44b384f27848,Open,Initial Interest,Top of Funnel,Ryan Minter,,7/16/2025,,,10,2026-04-21,4,,6,,,,,,,,,
001Hr000028ZbrW,"City Of Bellaire, TX",Texas,Municipality,Blake Anderson,16983,Open Opportunity,Tier 2,1.0,29.7035,-95.4681,d5b7b41d-b955-4bd1-b357-da9a9aec12d9,Open,Initial Interest,Top of Funnel,Emily Murnane,,10/1/2025,,Yes,6,2026-04-07,6,,,,,,,,,,,
001Hr000028Zbrc,"City Of Andrews, TX",Texas,Municipality,Lucy Nemerov,13370,Open Opportunity,Tier 2,1.0,32.3187,-102.5457,1bbb7a37-bc86-43d6-8f43-ccad9ce7da50,Open,Initial Interest,Top of Funnel,Leila Assil,,8/11/2025,,,4,2025-10-15,1,,,3,,,,,,,,
001Hr000028Zbry,"City of McKinney, TX",Texas,Municipality,Blake Anderson,189394,Open Opportunity,Tier S,2.0,33.1983,-96.6389,622c570d-2eb6-4d37-ae07-ce14b91a962e,Open,Initial Interest,Top of Funnel,Leila Assil,,8/8/2025,,,16,2026-04-24,5,,1,10,,,,,,,,
001Hr000028ZbsC,"City Of New Braunfels, TX",Texas,Municipality,Emily Murnane,98857,Nurture,Tier S,2.0,29.7026,-98.1241,6c3f1ae1-e26b-4300-9dea-18ae01ea8a44,Closed Lost,,,Troy LeCaire,,1/5/2025,,,12,2026-02-25,11,,,,,,1,,,,,
001Hr000028ZbsF,"City Of Grapevine, TX",Texas,Municipality,Blake Anderson,50872,,Tier S,2.0,32.9395,-97.0787,fc9b5fd4-cd6d-4af3-8463-6b2f49f6c97d,,,,,,,,,3,2025-12-10,,,3,,,,,,,,,
001Hr000028ZbsG,"City Of Yoakum, TX",Texas,Municipality,Lucy Nemerov,5923,,Tier 3,0.75,29.2877,-97.1519,8b9b7793-768a-46ca-97e9-1b15862adca7,,,,,,,,,5,2026-02-10,,1,,4,,,,,,,,
001Hr000028ZbsK,"City Of Pleasanton, TX",Texas,Municipality,Lucy Nemerov,10780,Open Opportunity,Tier 2,1.0,28.9672,-98.4786,7797122c-ea21-4785-b03f-10bd19efe517,Open,Initial Interest,Top of Funnel,Lucy Nemerov,3/18/2026,3/13/2026,,,53,2026-05-21,14,32,,5,,,,,,2,,
001Hr000028ZbsP,"County of Maverick, TX",Texas,County,Blake Anderson,58056,Open Opportunity,Tier S,2.0,28.741,-100.3498,d404f49b-1a4a-4d02-901e-ba67ee16ebfe,Open,Sales Qualified,Mid Funnel,Ryan Minter,1/12/2026,9/4/2025,,,36,2026-01-20,,,36,,,,,,,,,
001Hr000028ZbsR,"City Of Iowa Park, TX",Texas,Municipality,Blake Anderson,6547,,Tier 3,0.75,33.9515,-98.6687,5d290f43-7152-42ed-9b15-7cfb713ae825,,,,,,,,,14,2026-04-20,12,,2,,,,,,,,,
001Hr000028Zbsj,"City Of San Marcos, TX",Texas,Municipality,Lucy Nemerov,68580,,Tier S,2.0,29.8833,-97.9414,0283ff72-6021-4b39-a4fd-9f96f8b3c29c,,,,,,,,,9,2026-02-11,,1,,,8,,,,,,,
001Hr000028Zbsk,"City Of Big Spring, TX",Texas,Municipality,Blake Anderson,25735,,Tier 1,1.5,32.2529,-101.473,ff2f21a6-6ade-44be-a4ba-3ad38fd15a21,,,,,,,,,20,2025-10-03,20,,,,,,,,,,,
001Hr000028Zbsl,"City Of San Juan, TX",Texas,Municipality,Lucy Nemerov,35577,Open Opportunity,Tier 1,1.5,26.1892,-98.1553,bda5ac54-1d5a-4c38-9048-4450564e8fb7,Open,Initial Interest,Top of Funnel,Asher Rosenfeld,6/11/2025,1/5/2025,,Yes,,,,,,,,,,,,,,
001Hr000028Zbso,"City Of Hewitt, TX",Texas,Municipality,Blake Anderson,16131,All Modules Live,Tier 2,1.0,31.4624,-97.1958,4b1ac152-296e-489f-8bc0-238fbee56485,Closed Won,,,Shane Lieberman,7/31/2024,1/5/2025,"$28,000",,1,2026-05-06,,,,,,,,,,,1,
001Hr000028Zbst,"City Of Copperas Cove, TX",Texas,Municipality,Blake Anderson,37041,Open Opportunity,Tier 1,1.5,31.1241,-97.9031,2ca09bac-9bad-4b42-8d7e-858fdd00efb7,Open,Initial Interest,Top of Funnel,Emily Murnane,,9/3/2025,,,6,2026-02-26,5,,1,,,,,,,,,
001Hr000028ZbtQ,"City Of Floresville, TX",Texas,Municipality,Lucy Nemerov,7554,Open Opportunity,Tier 3,0.75,29.1336,-98.1561,5153c746-9530-40fa-88ed-7e392ece9a17,Open,Meeting Booked,Top of Funnel,Lucy Nemerov,7/2/2026,3/5/2026,,,8,2026-03-04,,6,,2,,,,,,,,
001Hr000028ZbtR,"City Of Eagle Pass, TX",Texas,Municipality,Blake Anderson,28596,Nurture,Tier 1,1.5,28.7091,-100.4995,6d66b76d-622b-443e-809c-6509a2c8b364,Closed Lost,,,Asher Rosenfeld,,1/5/2025,,,9,2025-11-05,9,,,,,,,,,,,
001Hr000028Zbtg,"City Of Vernon, TX",Texas,Municipality,Blake Anderson,10045,,Tier 2,1.0,34.1545,-99.2651,dc50ef57-0b99-44f4-8eab-8c8dcc903b44,,,,,,,,,15,2026-04-23,15,,,,,,,,,,,
001Hr000028Zbti,"City Of Bee Cave, TX",Texas,Municipality,Blake Anderson,9028,Open Opportunity,Tier 3,0.75,30.3061,-97.9524,76c2128d-276c-40f3-97dd-6a2bf01dd72e,Open,Initial Interest,Top of Funnel,Leila Assil,,8/26/2025,,,23,2025-11-03,9,,,14,,,,,,,,
001Hr000028Zbtl,"City Of Mansfield, TX",Texas,Municipality,Blake Anderson,74368,Open Opportunity,Tier S,2.0,32.5639,-97.1351,9018ce8e-19a5-489b-b330-87542cca7806,Open,Meeting Booked,Top of Funnel,Leila Assil,6/13/2025,2/13/2025,,,22,2025-11-10,16,,,6,,,,,,,,
001Hr000028Zbtq,"City Of Cibolo, TX",Texas,Municipality,Emily Murnane,33475,,Tier 1,1.5,29.5604,-98.2263,811df7b9-d740-45dc-b69b-3326e4458fa2,,,,,,,,,29,2026-03-23,15,,,14,,,,,,,,
001Hr000028Zbtv,"City Of Duncanville, TX",Texas,Municipality,Lucy Nemerov,39797,,Tier 1,1.5,32.6518,-96.9083,b6605a9d-e6a7-4bfb-8f29-9c9c1bdfdba4,,,,,,,,,5,2026-05-06,,5,,,,,,,,,,
001Hr000028Zbu0,"City Of Rowlett, TX",Texas,Municipality,Lucy Nemerov,63671,Open Opportunity,Tier S,2.0,32.9029,-96.5639,09ec968d-888c-451a-a906-736ef91c811b,Open,Proposal,Mid Funnel,Lucy Nemerov,2/19/2026,2/12/2026,"$65,000",,28,2026-02-19,,17,,,11,,,,,,,
001Hr000028Zbu5,"City Of Haltom City, TX",Texas,Municipality,Lucy Nemerov,45746,Open Opportunity,Tier 1,1.5,32.7996,-97.2692,2240164d-1654-4290-b80b-a4e8153e1f0e,Open,Initial Interest,Top of Funnel,Leila Assil,,2/21/2025,,,,,,,,,,,,,,,,
001Hr000028ZbuB,"City Of Kingsville, TX",Texas,Municipality,Lucy Nemerov,25069,,Tier 1,1.5,27.5159,-97.8561,88681f8c-23eb-4a32-8a94-c68386ff8ff2,,,,,,,,,7,2026-05-07,,6,,1,,,,,,,,
001Hr000028ZbuF,"City Of Hutto, TX",Texas,Municipality,Lucy Nemerov,42661,All Modules Live,Tier 1,1.5,30.5427,-97.5467,1b7e5767-fd23-4ea1-b960-a41133cb8263,Closed Won,,,Asher Rosenfeld,,1/5/2025,"$25,000",,,,,,,,,,,,,,,
001Hr000028ZbuJ,"City Of Granbury, TX",Texas,Municipality,Blake Anderson,11424,,Tier 2,1.0,32.4489,-97.7906,438d7dfb-6504-4bcc-96e2-5049d80286f8,,,,,,,,,23,2026-05-20,22,,,,,1,,,,,,
001Hr000028ZbuK,"City Of Harker Heights, TX",Texas,Municipality,Blake Anderson,33560,Open Opportunity,Tier 1,1.5,31.0835,-97.6597,94ddbb17-ac0a-4ded-8a56-b75e4d6d4867,Open,Initial Interest,Top of Funnel,Emily Murnane,,9/5/2025,,,18,2026-04-22,18,,,,,,,,,,,
001Hr000028ZbuQ,"Hays County, TX",Texas,County,Emily Murnane,234573,,Tier S,2.0,30.0538,-98.0029,3c74a4cc-259c-4db5-95de-f4406b1bc68b,,,,,,,,,8,2026-04-13,8,,,,,,,,,,,
001Hr000028ZbuV,"City Of Lumberton, TX",Texas,Municipality,Blake Anderson,13802,,Tier 2,1.0,30.2658,-94.1996,326b9aa6-2982-489c-a336-4f0c6708cd6b,,,,,,,,,13,2025-12-04,,,13,,,,,,,,,
001Hr000028ZbuZ,"City of Georgetown, TX",Texas,Municipality,Blake Anderson,114000,Recent Competitor Purchase,Tier S,2.0,30.6333,-97.678,0a78c9db-32b3-4cdf-b515-2fa5ef52a724,Closed Lost,,,Ryan Minter,11/12/2025,10/30/2025,"$28,000",,11,2025-12-17,,,11,,,,,,,,,
001Hr000028Zbum,"City Of Nolanville, TX",Texas,Municipality,Lucy Nemerov,6249,Nurture,Tier 3,0.75,31.0788,-97.6056,88dbc711-b2e7-4518-90b2-7bbf047dc764,Closed Lost,,,Asher Rosenfeld,,1/5/2025,,,16,2026-05-21,,16,,,,,,,,,,
001Hr000028Zbup,"City Of Texarkana, TX",Texas,Municipality,Lucy Nemerov,29314,Open Opportunity,Tier 1,1.5,33.4251,-94.0477,8dc6f9d2-75e1-4105-bd80-c48b0628ef6e,Open,Initial Interest,Top of Funnel,Asher Rosenfeld,,1/5/2025,,,10,2026-03-24,,10,,,,,,,,,,
001Hr000028Zbv9,Cameron County,Texas,County,Blake Anderson,420554,,Tier S,2.0,26.1285,-97.5247,1b057f00-c8a4-456f-add7-fc3f8b931f6c,,,,,,,,,6,2026-02-10,,,,,6,,,,,,,
001Hr000028ZbvC,"City Of Liberty, TX",Texas,Municipality,Emily Murnane,8539,Open Opportunity,Tier 3,0.75,30.058,-94.7955,27632e6b-3f45-40c0-be39-feae270e1b94,Open,Proposal,Mid Funnel,Leila Assil,8/26/2025,8/8/2025,"$24,000",,8,2025-08-19,,,,8,,,,,,,,
001Hr000028ZbvD,"City Of Mcgregor, TX",Texas,Municipality,Blake Anderson,5522,Nurture,Tier 3,0.75,31.4441,-97.4092,e200c62f-8fe9-43ae-b242-b36cc3462a83,Closed Lost,,,Leila Assil,9/5/2025,8/25/2025,,,9,2026-05-26,,,,3,,6,,,,,,
001Hr000028ZbvE,"City Of Dumas, TX",Texas,Municipality,Blake Anderson,14290,,Tier 2,1.0,35.8654,-101.9732,8be65e32-6eb1-4c98-a175-83a550a8fc18,,,,,,,,,16,2025-10-08,16,,,,,,,,,,,
001Hr000028ZbvJ,"City Of Sachse, TX",Texas,Municipality,Blake Anderson,29042,,Tier 1,1.5,32.9762,-96.5953,c2866c45-5dad-4846-8020-a60b00ee4d37,,,,,,,,,4,2026-05-20,3,,,,,1,,,,,,
001Hr000028ZbvN,"City Of La Porte, TX",Texas,Municipality,Blake Anderson,35964,,Tier 1,1.5,29.6658,-95.0194,caed5e8c-8e62-40ea-aa7d-6888833c7d90,,,,,,,,,35,2026-04-15,8,,,27,,,,,,,,
001Hr000028ZbvO,"City of Harlingen, TX",Texas,Municipality,Blake Anderson,71124,,Tier S,2.0,26.1906,-97.6961,eead2dea-ffb6-4d41-85c2-f405d517cf86,,,,,,,,,7,2026-04-15,3,,4,,,,,,,,,
001Hr000028ZbvT,"City Of Wylie, TX",Texas,Municipality,Blake Anderson,59394,,Tier S,2.0,33.0063,-96.5391,5cc7bdac-bbf8-474a-bf40-6664e2c5cd64,,,,,,,,,25,2026-02-12,,,,,25,,,,,,,
001Hr000028ZbvZ,"City Of Kermit, TX",Texas,Municipality,Lucy Nemerov,6016,,Tier 3,0.75,31.8576,-103.0927,1dcd3925-736d-4ada-91c7-24ac43fb2790,,,,,,,,,,,,,,,,,,,,,,
001Hr000028Zbvi,"City Of Hutchins, TX",Texas,Municipality,Emily Murnane,5566,Open Opportunity,Tier 3,0.75,32.6493,-96.7131,82090625-7c1c-4ffa-a06e-42a26ca3df6f,Open,Initial Interest,Top of Funnel,Emily Murnane,,12/29/2025,,,30,2026-03-11,11,,,19,,,,,,,,
001Hr000028Zbvo,"City of Odessa, TX",Texas,Municipality,Blake Anderson,112640,,Tier S,2.0,30.8263,-98.7069,e4e646d0-1009-4865-b071-428864554dc0,,,,,,,,,1,2026-04-14,1,,,,,,,,,,,
001Hr000028Zbvr,"City Of Rockport, TX",Texas,Municipality,Emily Murnane,10436,Open Opportunity,Tier 2,1.0,28.0273,-97.0545,b5264016-822b-4082-9f88-3f161d742e68,Open,Initial Interest,Top of Funnel,Ryan Minter,5/6/2026,5/6/2026,,,11,2026-05-06,3,,5,3,,,,,,,,
001Hr000028Zbvt,"City Of Taylor, TX",Texas,Municipality,Lucy Nemerov,16807,Nurture,Tier 2,1.0,30.5702,-97.4097,2d9da401-ce7b-4f56-a40d-9b44b791c84d,Closed Lost,,,David Ciano,1/14/2025,1/5/2025,"$40,000",,40,2026-05-22,21,2,,7,10,,,,,,,
001Hr000028Zbvw,"City Of Port Arthur, TX",Texas,Municipality,Blake Anderson,55724,Nurture,Tier S,2.0,29.8709,-93.934,57a52358-812a-41a3-b27a-f0ce75998a22,Closed Lost,,,Troy LeCaire,,1/5/2025,,,11,2026-05-26,,,5,,,6,,,,,,
001Hr000028Zbvx,"City Of Vidor, TX",Texas,Municipality,Lucy Nemerov,9712,,Tier 3,0.75,30.1316,-94.0155,780ff226-e7b1-4cfc-8c5f-395a06a199f4,,,,,,,,,5,2026-03-02,,4,,,1,,,,,,,
001Hr000028Zbw4,"Town Of Bedford, TX",Texas,Municipality,Lucy Nemerov,49187,,Tier 1,1.5,32.844,-97.1431,8ca5fb16-df02-4036-a41e-db35aecea963,,,,,,,,,9,2026-05-07,,9,,,,,,,,,,
001Hr000028ZbwE,"City Of San Elizario, TX",Texas,Municipality,Lucy Nemerov,10093,Open Opportunity,Tier 2,1.0,31.5851,-106.2728,65c6bd97-9a03-4231-ad5c-1fe122eb52ee,Open,Initial Interest,Top of Funnel,Leila Assil,,4/1/2025,,,27,2025-12-16,18,,,9,,,,,,,,
001Hr000028ZbwR,"City Of Belton, TX",Texas,Municipality,Emily Murnane,23845,,Tier 2,1.0,31.056,-97.4645,4c8aa9ad-f352-410b-ab97-b7475127daf9,,,,,,,,,25,2026-02-23,25,,,,,,,,,,,
001Hr000028ZbwW,"City of Abilene, TX",Texas,Municipality,Blake Anderson,125474,,Tier S,2.0,32.4535,-99.7313,b50e19e8-ac59-4312-a32d-6763bf04c773,,,,,,,,,3,2026-02-25,,,3,,,,,,,,,
001Hr000028Zbwb,"City Of Socorro, TX",Texas,Municipality,Lucy Nemerov,36236,,Tier 1,1.5,31.6546,-106.3033,52dafa04-7a31-4255-89b5-18542b1d1840,,,,,,,,,15,2026-05-14,,11,,4,,,,,,,,
001Hr000028Zbwc,City of Tyler,Texas,Municipality,Blake Anderson,104945,,Tier S,2.0,32.3513,-95.3011,44ac920e-c1c2-4757-8aab-de102e88ae01,,,,,,,,,5,2026-04-22,5,,,,,,,,,,,
001Hr000028Zbwi,"Kaufman County, TX",Texas,County,Blake Anderson,140145,Nurture,Tier S,2.0,32.6495,-96.3226,efdc49d1-bbb2-4058-a15a-043cf6be291e,Closed Lost,,,Troy LeCaire,,1/5/2025,,,4,2025-12-17,4,,,,,,,,,,,
001Hr000028Zbwr,"City Of River Oaks, TX",Texas,Municipality,Blake Anderson,7505,Nurture,Tier 3,0.75,32.7771,-97.3945,89ee609d-d0c1-4851-be70-dcf929841fee,Closed Lost,,,Leila Assil,11/21/2024,1/5/2025,,,1,2026-02-25,,,1,,,,,,,,,
001Hr000028Zbws,"City Of Whitehouse, TX",Texas,Municipality,Lucy Nemerov,8734,,Tier 3,0.75,32.2268,-95.2255,b765bbb6-9c9f-4ce8-99b6-38e55fbd2531,,,,,,,,,12,2026-04-30,,7,,5,,,,,,,,
001Hr000028Zbwv,"City Of Royse City, TX",Texas,Municipality,Lucy Nemerov,15978,Open Opportunity,Tier 2,1.0,32.9751,-96.3325,f7ec6a9d-59ef-4beb-8fce-01a611667b0c,Open,Initial Interest,Top of Funnel,Lucy Nemerov,,4/30/2026,,,13,2026-04-30,,12,,,1,,,,,,,
001Hr000028Zbwy,"City Of Henderson, TX",Texas,Municipality,Blake Anderson,13502,,Tier 2,1.0,32.1532,-94.7994,685fa492-15b2-4f05-986c-2919b1e96405,,,,,,,,,15,2026-04-21,4,,11,,,,,,,,,
001Hr000028Zbx0,"City Of Leon Valley, TX",Texas,Municipality,Lucy Nemerov,11463,,Tier 2,1.0,29.4952,-98.6186,0a1e6263-c4dc-49c8-9ceb-578e1a080570,,,,,,,,,9,2026-05-06,,5,,4,,,,,,,,
001Hr000028Zbx1,"City Of Portland, TX",Texas,Municipality,Blake Anderson,20536,,Tier 2,1.0,27.8772,-97.3239,67244806-5975-4f9d-8e4a-fec41685d9b8,,,,,,,,,15,2026-02-18,,,15,,,,,,,,,
001Hr000028ZbxE,"City Of Euless, TX",Texas,Municipality,Blake Anderson,60500,,Tier S,2.0,32.841,-97.092,739bb377-4e3c-4b51-b513-f36e6c0099c6,,,,,,,,,20,2026-01-27,,,20,,,,,,,,,
001Hr000028ZbxJ,"City Of Weatherford, TX",Texas,Municipality,Lucy Nemerov,33710,Open Opportunity,Tier 1,1.5,32.7593,-97.7973,41091a08-ffd4-46fb-a34d-7d4e27fcf809,,,,,,,,,11,2026-04-22,,10,,,1,,,,,,,
001Hr000028ZbxK,City of Allen,Texas,Municipality,Blake Anderson,102778,,Tier S,2.0,33.1032,-96.6706,7dc92bd5-0c13-4ec0-862a-086037597cdc,,,,,,,,,7,2026-05-26,,,,,,7,,,,,,
001Hr000028ZbxM,Henderson County,Texas,County,Blake Anderson,81717,,Tier S,2.0,32.1321,-95.8143,359777be-9ffc-4720-96ab-6facf8faf166,,,,,,,,,,,,,,,,,,,,,,
001Hr000028Zbxf,"City Of Manvel, TX",Texas,Municipality,Blake Anderson,12355,,Tier 2,1.0,29.4627,-95.358,e368944d-8e8c-4858-8a31-f5ba6a8b3018,,,,,,,,,4,2025-09-25,,,,4,,,,,,,,
001Hr000028Zbxj,"City Of Stephenville, TX",Texas,Municipality,Blake Anderson,21199,Nurture,Tier 2,1.0,32.2207,-98.2023,d5c052c9-482e-44a4-96ea-f40a46d71d52,Closed Lost,,,Ryan Minter,11/20/2025,11/19/2025,,,11,2025-11-20,,,11,,,,,,,,,
001Hr000028ZbyC,"City Of Del Rio, TX",Texas,Municipality,Emily Murnane,34584,Open Opportunity,Tier 1,1.5,29.3709,-100.8959,91ffddbb-da1d-405b-81ff-b802a904e305,Open,Initial Interest,Top of Funnel,Emily Murnane,,10/8/2025,,,24,2026-03-26,24,,,,,,,,,,,
001Hr000028ZbyD,"City Of Midlothian, TX",Texas,Municipality,Lucy Nemerov,37053,,Tier 1,1.5,32.4753,-97.0103,dd3d201a-b8c2-4297-94e3-a4e3f9cbba8e,,,,,,,,,43,2026-05-04,,27,,,16,,,,,,,
001Hr000028ZbyE,"City Of Bridge City, TX",Texas,Municipality,Blake Anderson,9519,Open Opportunity,Tier 3,0.75,30.0208,-93.8457,4be15277-913b-4a1e-a0d7-1802beeb9494,Open,Initial Interest,Top of Funnel,Emily Murnane,,9/17/2025,,,5,2026-05-21,4,,,,,1,,,,,,
001Hr000028ZbyI,"City Of Corsicana, TX",Texas,Municipality,Blake Anderson,25203,,Tier 1,1.5,32.0954,-96.4689,2a417dc6-276a-40ae-8d8d-da5660574636,,,,,,,,,5,2026-02-19,,,5,,,,,,,,,
001Hr000028ZbyJ,"City Of The Colony, TX",Texas,Municipality,Emily Murnane,45000,,Tier 1,1.5,33.0806,-96.8928,52ad17e9-bb8d-4ffc-8819-b516ba5ee4cd,,,,,,,,,31,2026-01-13,31,,,,,,,,,,,
001Hr000028ZbyM,"City Of Greenville, TX",Texas,Municipality,Lucy Nemerov,29578,Open Opportunity,Tier 1,1.5,33.1398,-96.1072,d485c82a-2674-4892-89d3-e5f9d8920a66,Open,Initial Interest,Top of Funnel,Alicia Gopal,,10/23/2025,,,8,2026-03-03,,2,,,6,,,,,,,
001Hr000028ZbyO,"City Of Cuero, TX",Texas,Municipality,Emily Murnane,8235,,Tier 3,0.75,29.0939,-97.2892,888bdd90-c408-47a7-a069-91db4e5de0d0,,,,,,,,,12,2026-02-04,12,,,,,,,,,,,
001Hr000028ZbyR,"City Of Sherman, TX",Texas,Municipality,Blake Anderson,44873,,Tier 1,1.5,33.6357,-96.6089,a395619c-4da0-4209-8c4e-df5e2dd765a2,,,,,,,,,9,2026-01-08,,,,,9,,,,,,,
001Hr000028ZbyW,"City Of Lufkin, TX",Texas,Municipality,Blake Anderson,34074,Nurture,Tier 1,1.5,31.3346,-94.7321,e8fd01d5-a90b-4f12-a967-6038868fd41a,Closed Lost,,,Shane Lieberman,8/22/2024,1/5/2025,,,2,2026-01-09,,,,,2,,,,,,,
001Hr000028ZbyX,"County Of Walker, TX",Texas,County,Lucy Nemerov,77977,Nurture,Tier S,2.0,30.6815,-95.6458,3131d8e4-0280-4c25-8997-488fca5990ae,Closed Lost,,,Harrison Peacock,9/19/2024,1/5/2025,,,4,2026-02-11,,4,,,,,,,,,,
001Hr000028ZbyY,"City Of Burnet, TX",Texas,Municipality,Lucy Nemerov,6676,,Tier 3,0.75,30.7582,-98.2284,1e26544f-062c-4d73-a8b6-7bd41bb18f58,,,,,,,,,20,2026-05-06,,13,,7,,,,,,,,
001Hr000028ZbzN,"City Of Lamesa, TX",Texas,Municipality,Blake Anderson,8751,Nurture,Tier 3,0.75,32.7376,-101.951,23efe6e3-b5b2-4a5b-b977-29a63282934d,Closed Lost,,,Shane Lieberman,1/9/2024,1/5/2025,"$20,500",,5,2025-09-18,,,,5,,,,,,,,
001Hr000028ZbzP,"City Of Desoto, TX",Texas,Municipality,Blake Anderson,55729,Nurture,Tier S,2.0,32.5897,-96.8571,c1b4ab54-b43e-4d94-8cdb-55cd3f1c75c0,Closed Lost,,,Troy LeCaire,,1/5/2025,,,8,2025-11-10,,,8,,,,,,,,,
001Hr000028ZbzR,"City Of Temple, TX",Texas,Municipality,Blake Anderson,85416,Nurture,Tier S,2.0,31.0976,-97.3408,95476fb0-deb7-44f6-8d84-230b23e45465,Closed Lost,,,Troy LeCaire,,1/5/2025,,,26,2025-12-04,,,,,26,,,,,,,
001Hr000028ZbzZ,"City Of Lake Jackson, TX",Texas,Municipality,Blake Anderson,27879,Nurture,Tier 1,1.5,29.0339,-95.4344,f7171b33-d4df-48f6-8bca-73a6f5e4defb,Open,Initial Interest,Top of Funnel,Asher Rosenfeld,,1/5/2025,,Yes,2,2025-11-24,,,2,,,,,,,,,
001Hr000028Zbzf,City of Arlington,Texas,Municipality,Blake Anderson,392304,,Tier S,2.0,32.7357,-97.1081,fecc8f74-3a90-4771-bccc-b476b86871a8,,,,,,,,,,,,,,,,,,,,,,
001Hr000028Zbzm,"City Of Gladewater, TX",Texas,Municipality,Emily Murnane,6137,Open Opportunity,Tier 3,0.75,32.5365,-94.9427,7bc43409-8391-4ddb-a296-38102fc27f5a,Open,Meeting Booked,Top of Funnel,Emily Murnane,9/4/2025,9/3/2025,,,16,2025-12-30,16,,,,,,,,,,,
001Hr000028Zbzp,"City Of Lacy Lakeview, TX",Texas,Municipality,Lucy Nemerov,7090,Nurture,Tier 3,0.75,31.6292,-97.103,dc27287e-5dbc-4333-af0a-e21904b25610,Closed Lost,,,Troy LeCaire,,1/5/2025,,,3,2026-02-12,,3,,,,,,,,,,
001Hr000028Zbzw,"City Of San Angelo, TX",Texas,Municipality,Blake Anderson,99667,Nurture,Tier S,2.0,31.4638,-100.437,ea776ea7-1b62-4590-ab36-76659c9d8755,Closed Lost,,,Troy LeCaire,,1/5/2025,,,22,2025-12-15,6,,,,,,16,,,,,
001Hr000028Zc00,City of Waco,Texas,Municipality,Blake Anderson,136800,,Tier S,2.0,31.5576,-97.129,a1e917ac-58b6-4446-8387-ca2522154043,,,,,,,,,,,,,,,,,,,,,,
001Hr000028Zc0E,"City Of Universal City, TX",Texas,Municipality,Lucy Nemerov,19808,Nurture,Tier 2,1.0,29.5523,-98.3044,b8c00ebb-d038-4816-8a69-d2c0a4b28436,Closed Lost,,,Troy LeCaire,,1/5/2025,,,3,2026-02-05,,3,,,,,,,,,,
001Hr000028Zc0F,Hunt County,Texas,County,Lucy Nemerov,98783,,Tier S,2.0,33.1968,-96.1527,86a6b886-a71a-43b7-a1ac-47f609caa5fc,,,,,,,,,4,2026-02-25,,4,,,,,,,,,,
001Hr000028Zc0Y,"City Of Fair Oaks Ranch, TX",Texas,Municipality,Emily Murnane,10505,Open Opportunity,Tier 2,1.0,29.731,-98.6424,69edeb7e-8521-492e-b630-348dc893eb52,Open,Initial Interest,Top of Funnel,Emily Murnane,,9/5/2025,,,23,2026-01-07,23,,,,,,,,,,,
001Hr000028Zc0a,"County Of Liberty, TX",Texas,County,Lucy Nemerov,97621,,Tier S,2.0,30.1634,-94.8106,00d5fb48-a22a-4388-a2c6-c18980f73101,,,,,,,,,1,2026-02-06,,1,,,,,,,,,,
001Hr000028Zc1S,"City Of Bowie, TX",Texas,Municipality,Blake Anderson,5534,,Tier 3,0.75,33.559,-97.8486,2f3a949a-115a-4166-9bc2-091ad1751ba5,,,,,,,,,22,2026-05-26,,,,2,,20,,,,,,
001Hr000028Zc1f,"City Of Selma, TX",Texas,Municipality,Lucy Nemerov,11619,,Tier 2,1.0,29.5867,-98.3029,d71866bd-db08-4bcd-929c-7098331e4075,,,,,,,,,9,2026-05-14,,6,,,3,,,,,,,
001Hr000028Zc1g,"City Of Aransas Pass, TX",Texas,Municipality,Lucy Nemerov,8011,,Tier 3,0.75,27.9095,-97.1506,ab673502-ee13-4951-bbf7-725a76c1c08d,,,,,,,,,4,2026-02-25,,4,,,,,,,,,,
001Hr000028Zc1i,"City Of Bonham, TX",Texas,Municipality,Emily Murnane,10559,,Tier 2,1.0,33.5773,-96.1783,a018e82f-7546-4ebb-8bf6-2b672911425c,,,,,,,,,6,2026-02-23,5,,,1,,,,,,,,
001Hr000028Zc1k,"City Of Windcrest, TX",Texas,Municipality,Emily Murnane,5828,Nurture,Tier 3,0.75,29.5168,-98.3812,33fd6351-9ac5-48c4-b7a3-6ac199fd6986,Closed Lost,,,Emily Murnane,3/2/2026,9/11/2025,,,9,2025-11-14,9,,,,,,,,,,,
001Hr000028Zc1l,"City Of Monahans, TX",Texas,Municipality,Blake Anderson,7498,,Tier 3,0.75,31.5943,-102.8927,4218e36b-29a0-4df9-be1d-8985be1616e0,,,,,,,,,9,2026-05-18,2,,,,,7,,,,,,
001Hr000028Zc1p,"City Of Live Oak, TX",Texas,Municipality,Lucy Nemerov,15840,,Tier 2,1.0,29.5632,-98.3348,ab8fda7a-204e-460f-8c2e-1dfc0131624b,,,,,,,,,35,2026-05-06,22,13,,,,,,,,,,
001Hr000028Zc1t,"City Of Granite Shoals, TX",Texas,Municipality,Blake Anderson,5222,Open Opportunity,Tier 3,0.75,30.587,-98.3817,63fe20f1-b776-498a-b935-3af7d4de1bbf,Open,Initial Interest,Top of Funnel,Ryan Minter,3/3/2026,2/5/2026,,,3,2026-04-15,,,3,,,,,,,,,
001Hr000028Zc1u,"City Of Kirby, TX",Texas,Municipality,Blake Anderson,8100,Open Opportunity,Tier 3,0.75,29.4596,-98.3813,5f45fa39-22b7-4327-8e19-2d72d4e02422,Open,Initial Interest,Top of Funnel,Alicia Gopal,,10/23/2025,,,29,2026-01-05,,,,,29,,,,,,,
001Hr000028Zc1z,"City Of Terrell Hills, TX",Texas,Municipality,Blake Anderson,5037,,Tier 3,0.75,29.4749,-98.4512,32957850-72c6-4899-ac1a-abb1f00067d4,,,,,,,,,5,2026-04-07,,,2,,3,,,,,,,
001Hr000028Zc20,"City Of Marlin, TX",Texas,Municipality,Emily Murnane,5543,,Tier 3,0.75,31.3063,-96.898,45afe4d6-d55d-4b09-86af-1be3e888884c,,,,,,,,,19,2026-02-23,19,,,,,,,,,,,
001Hr000028Zc24,"City Of Helotes, TX",Texas,Municipality,Blake Anderson,9178,Open Opportunity,Tier 3,0.75,29.5612,-98.6802,1c5fa029-f231-4cb3-a9cf-b92e3a64b7f0,Open,Initial Interest,Top of Funnel,Emily Murnane,,9/15/2025,,,23,2025-11-14,23,,,,,,,,,,,
001Hr000028Zc29,"City Of Alamo Heights, TX",Texas,Municipality,Blake Anderson,7392,,Tier 3,0.75,29.483,-98.4662,7955c303-8761-47cd-b6a0-cd502102108f,,,,,,,,,26,2025-11-24,7,,,19,,,,,,,,
001Hr000028Zc2C,"City Of Clute, TX",Texas,Municipality,Lucy Nemerov,10593,Nurture,Tier 2,1.0,29.0247,-95.3988,f4a726e4-9405-4558-9735-ca30c64ca1c2,Open,Initial Interest,Top of Funnel,Leila Assil,,2/20/2025,,Yes,11,2026-02-25,,5,,,6,,,,,,,
001Hr000028Zc2E,"City Of Anna, TX",Texas,Municipality,Emily Murnane,20243,Nurture,Tier 2,1.0,33.349,-96.5486,2d4b7b47-b540-474a-acd0-333c1c88fb30,Closed Lost,,,Shane Lieberman,11/20/2024,1/5/2025,"$57,000",,11,2026-04-23,11,,,,,,,,,,,
001Hr000028Zc2T,"City Of Highland Park, TX",Texas,Municipality,Lucy Nemerov,8747,,Tier 3,0.75,32.8335,-96.7919,4d8a23ee-ffe9-4035-862b-7582768b8292,,,,,,,,,5,2026-02-24,,5,,,,,,,,,,
001Hr000028Zc2k,"City Of Snyder, TX",Texas,Municipality,Lucy Nemerov,11264,,Tier 2,1.0,32.7179,-100.9176,22825bdf-2671-4df6-a7ef-dfe7149a06b1,,,,,,,,,13,2026-05-06,,3,,,10,,,,,,,
001Hr000028Zc34,"City Of Orange, TX",Texas,Municipality,Blake Anderson,19169,Nurture,Tier 2,1.0,30.093,-93.7366,a0c8c8c4-0b63-4845-b09b-d071e6d8a6db,Closed Lost,,,Shane Lieberman,8/19/2024,1/5/2025,,,2,2025-12-04,,,1,1,,,,,,,,
001Hr000028Zc3D,"City Of Cleveland, TX",Texas,Municipality,Blake Anderson,7999,All Modules Live,Tier 3,0.75,30.3413,-95.0855,bfc5d5b9-fee3-44dd-9b32-e18cfcf4c874,,,,,,,,,,,,,,,,,,,,,,
001Hr000028Zc3a,"City Of Hudson, TX",Texas,Municipality,Blake Anderson,4986,,Tier 3,0.75,31.3295,-94.7821,2a2fb29d-20d3-44c7-8e88-8a714e1f558c,,,,,,,,,7,2026-04-20,,,2,5,,,,,,,,
001Hr000028Zc3c,"City Of Sinton, TX",Texas,Municipality,Blake Anderson,5562,,Tier 3,0.75,28.0367,-97.5092,04214a3c-9c9a-4d1c-95db-cf7902d9ba3c,,,,,,,,,9,2026-05-26,3,,,,,6,,,,,,
001Hr000028Zc3h,"City Of Mexia, TX",Texas,Municipality,Emily Murnane,6876,,Tier 3,0.75,31.6799,-96.4822,eaf02651-670a-49ad-965f-866e932ec405,,,,,,,,,9,2026-02-19,3,,,6,,,,,,,,
001Hr000028Zc3i,"City Of Brownwood, TX",Texas,Municipality,Emily Murnane,18770,Nurture,Tier 2,1.0,31.7093,-98.9912,be894e0e-492a-4d82-aec7-f5bafba4c315,Closed Lost,,,Leila Assil,,5/27/2025,,,13,2026-02-04,2,,,11,,,,,,,,
001Hr000028Zc3r,City of Killeen,Texas,Municipality,Blake Anderson,150082,,Tier S,2.0,31.1212,-97.7332,49224f8c-9e74-40ff-b31e-b6271f2d5a41,,,,,,,,,3,2025-11-13,,,3,,,,,,,,,
001Hr000028Zc41,"City Of Port Lavaca, TX",Texas,Municipality,Blake Anderson,11259,Nurture,Tier 2,1.0,28.615,-96.6261,7c4faf6c-5815-4e6b-bb6f-3d7dbbb4bf61,Closed Lost,,,Troy LeCaire,,1/5/2025,"$15,000",,14,2025-10-15,,,14,,,,,,,,,
001Hr000028Zc4C,"Town Of Providence Village, TX",Texas,Municipality,Blake Anderson,7812,,Tier 3,0.75,33.2412,-96.9558,335a7790-eb6e-4f9d-9673-45083bc09bd3,,,,,,,,,7,2025-12-22,6,,,1,,,,,,,,
001Hr000028Zc4M,"City Of Brownfield, TX",Texas,Municipality,Blake Anderson,8916,,Tier 3,0.75,33.1812,-102.2743,89509302-5a53-4b38-a44d-2816f66a8b89,,,,,,,,,9,2026-05-18,3,,,,,6,,,,,,
001Hr000028Zc4N,"City Of Rusk, TX",Texas,Municipality,Blake Anderson,5537,,Tier 3,0.75,31.796,-95.1502,104a34a4-8737-438c-a13e-b6c38a8f52db,,,,,,,,,5,2025-09-24,,,,5,,,,,,,,
001Hr000028Zc4c,"City Of Dayton, TX",Texas,Municipality,Blake Anderson,9134,,Tier 3,0.75,30.0466,-94.8852,81d37838-b381-4ced-9338-8c245a5d4de4,,,,,,,,,11,2026-01-22,,,,7,4,,,,,,,
001Hr000028Zc4d,City of Laredo,Texas,Municipality,Blake Anderson,254697,,Tier S,2.0,27.5036,-99.5076,ce5ff67b-5668-456b-9ebe-3ba4898544d9,,,,,,,,,6,2026-03-13,,,6,,,,,,,,,
001Hr000028Zc4h,"City Of La Marque, TX",Texas,Municipality,Blake Anderson,18697,,Tier 2,1.0,29.3686,-94.9713,a9ac3dca-874b-42dd-b76a-2e6fc1671ad8,,,,,,,,,1,2025-12-04,,,1,,,,,,,,,
001Hr000028Zc4l,"City Of Wolfforth, TX",Texas,Municipality,Blake Anderson,6008,All Modules Live,Tier 3,0.75,33.5059,-102.0091,0fb13cb2-2de3-4465-9982-1b113af6becb,,,,,,,,,,,,,,,,,,,,,,
001Hr000028Zc4r,City of Mesquite,Texas,Municipality,Blake Anderson,149848,Open Opportunity,Tier S,2.0,32.7668,-96.5992,2f63d36c-43b7-4813-8a97-2bd5447c09ee,Open,Initial Interest,Top of Funnel,Ryan Minter,,11/13/2025,,,14,2026-02-12,,,14,,,,,,,,,
001Hr000028Zc4t,"City Of Breckenridge, TX",Texas,Municipality,Lucy Nemerov,5244,,Tier 3,0.75,32.7557,-98.9023,6614d560-8b87-43ec-b136-c88d87ae2ffe,,,,,,,,,13,2026-02-23,,6,,7,,,,,,,,
001Hr000028Zc4y,"City Of Cameron, TX",Texas,Municipality,Blake Anderson,5352,,Tier 3,0.75,30.8532,-96.9769,a42331b5-1661-4f96-a6e0-3539bc433c22,,,,,,,,,11,2025-10-13,11,,,,,,,,,,,
001Hr000028Zc53,"City Of Hillsboro, TX",Texas,Municipality,Blake Anderson,8305,,Tier 3,0.75,32.011,-97.13,490ab718-d4b0-4f7d-af28-a3ae99180277,,,,,,,,,17,2026-05-14,,,,13,,4,,,,,,
001Hr000028Zc58,"City Of Stafford, TX",Texas,Municipality,Lucy Nemerov,17364,Nurture,Tier 2,1.0,29.6161,-95.5577,dd0b6066-ca42-45e9-bc4e-26f5c0a0d6d9,Closed Lost,,,Troy LeCaire,,1/5/2025,,,26,2026-04-30,4,9,,13,,,,,,,,
001Hr000028Zc59,"City Of Nederland, TX",Texas,Municipality,Emily Murnane,18331,1+ Module Live,Tier 2,1.0,29.9744,-93.9924,1c09a627-777c-43c5-8d1f-60c7ef591b8e,Closed Won,,,Asher Rosenfeld,8/1/2024,1/5/2025,"$5,000",,,,,,,,,,,,,,,
001Hr000028Zc5D,"City Of Webster, TX",Texas,Municipality,Emily Murnane,12193,,Tier 2,1.0,29.5377,-95.1183,bd28186d-7d25-4596-a077-b958b14e39af,,,,,,,,,10,2025-12-29,10,,,,,,,,,,,
001Hr000028Zc5I,"City Of Tomball, TX",Texas,Municipality,Blake Anderson,12810,,Tier 2,1.0,30.0972,-95.6161,19455390-ca11-4130-96ae-36813a5a02d9,,,,,,,,,38,2026-05-26,,,18,,,20,,,,,,
001Hr000028Zc5N,"City Of Dickinson, TX",Texas,Municipality,Lucy Nemerov,21697,Open Opportunity,Tier 2,1.0,29.4608,-95.0513,b6fa417c-4686-46e9-9e13-07f7dff019ed,Open,Initial Interest,Top of Funnel,Alicia Gopal,10/21/2025,10/15/2025,,,8,2026-01-13,,,,,8,,,,,,,
001Hr000028Zc5S,"City Of Richmond, TX",Texas,Municipality,Blake Anderson,12233,,Tier 2,1.0,29.5822,-95.7608,015da716-1eae-4bea-ac5a-1a3526831827,,,,,,,,,14,2025-11-24,3,,,11,,,,,,,,
001Hr000028Zc5T,"Ellis County, TX",Texas,County,Emily Murnane,187984,Nurture,Tier S,2.0,32.262,-96.8351,2baa54aa-90d8-45ed-935e-172a7cd3806d,Open,Proposal,Mid Funnel,Jason Ginsberg,4/2/2026,3/31/2026,"$24,000",,8,2026-03-31,7,,,,,,,,,,1,
001Hr000028Zc5X,"City Of Humble, TX",Texas,Municipality,Lucy Nemerov,16396,Nurture,Tier 2,1.0,29.9988,-95.2622,f278f631-12f9-4808-b522-b21f8b6e5936,Closed Lost,,,Leila Assil,4/28/2025,1/5/2025,,,15,2026-03-31,,7,,8,,,,,,,,
001Hr000028Zc5Y,"City Of Groves, TX",Texas,Municipality,Emily Murnane,16915,1+ Module Live,Tier 2,1.0,29.9483,-93.9171,fc89cda1-509b-4485-a326-deaed771c796,Closed Won,,,Leila Assil,4/23/2025,4/22/2025,"$25,000",,,,,,,,,,,,,,,
001Hr000028Zc5b,"City Of Crockett, TX",Texas,Municipality,Blake Anderson,6406,Nurture,Tier 3,0.75,31.3178,-95.4572,61d52049-937f-4e4b-966f-7efbdd043c90,Closed Lost,,,Troy LeCaire,,1/5/2025,,,4,2025-10-03,4,,,,,,,,,,,
001Hr000028Zc5c,"City Of Mont Belvieu, TX",Texas,Municipality,Lucy Nemerov,8337,,Tier 3,0.75,29.8477,-94.8908,144a58a8-ca28-4cad-9e72-f9c0dd320701,,,,,,,,,12,2026-02-24,,6,,,6,,,,,,,
001Hr000028Zc5f,"City Of Kennedale, TX",Texas,Municipality,Blake Anderson,8463,,Tier 3,0.75,32.6468,-97.2258,5c74b5e3-1bc3-451f-b662-67127195c037,,,,,,,,,6,2025-09-16,6,,,,,,,,,,,
001Hr000028Zc5h,"Village Of Iowa Colony, TX",Texas,Municipality,Emily Murnane,17240,Open Opportunity,Tier 2,1.0,29.4386,-95.4175,e1cd80df-f648-4675-a998-4ccdedea15c4,Open,Verbal,Mid Funnel,Emily Murnane,2/19/2026,12/29/2025,"$24,000",,8,2026-02-02,8,,,,,,,,,,,
001Hr000028Zc5m,"City of League City, TX",Texas,Municipality,Blake Anderson,111847,Open Opportunity,Tier S,2.0,29.5038,-95.0938,8ec1d660-6914-422b-8a25-33402f5fe5b6,Open,Initial Interest,Top of Funnel,Emily Murnane,,2/10/2026,,,3,2026-02-18,2,,1,,,,,,,,,
001Hr000028Zc5r,"City Of Baytown, TX",Texas,Municipality,Lucy Nemerov,82480,Open Opportunity,Tier S,2.0,29.7355,-94.9774,3622e647-b5c2-46a3-a39a-c92001178876,Open,Initial Interest,Top of Funnel,Emily Murnane,,2/10/2026,,,22,2026-05-06,4,10,,,8,,,,,,,
001Hr000028Zc60,"City Of Diboll, TX",Texas,Municipality,Blake Anderson,4449,Open Opportunity,Tier 3,0.75,31.1922,-94.7808,07a09432-56db-4dc4-a8ce-e5e5b2260dd7,Open,Meeting Booked,Top of Funnel,Alicia Gopal,11/25/2025,10/2/2025,,,2,2025-11-12,,,,,2,,,,,,,
001Hr000028Zc6H,"City Of Dalhart, TX",Texas,Municipality,Blake Anderson,8347,Nurture,Tier 3,0.75,36.0595,-102.5132,2a10849d-4c57-4b07-aa23-b8a90f685d07,Closed Lost,,,Andy Blakely,6/25/2025,6/12/2025,,,8,2026-04-20,,,8,,,,,,,,,
001Hr000028Zc72,"City Of Levelland, TX",Texas,Municipality,Emily Murnane,12665,Open Opportunity,Tier 2,1.0,33.5873,-102.378,f0b9a595-ebd3-4f04-b039-8edc877594a9,Open,Initial Interest,Top of Funnel,Emily Murnane,,9/11/2025,,,8,2026-02-12,8,,,,,,,,,,,
001Hr000028Zc7A,Webb County,Texas,County,Lucy Nemerov,266963,,Tier S,2.0,27.8174,-99.0129,deb9238f-eefb-45e6-abad-e30d6ed5504d,,,,,,,,,1,2026-02-06,,1,,,,,,,,,,
001Hr000028Zc7F,"City Of Rockdale, TX",Texas,Municipality,Blake Anderson,5398,Nurture,Tier 3,0.75,30.6555,-97.0014,8f35e1af-e322-45f3-be26-4454207687ed,Closed Lost,,,Asher Rosenfeld,,1/5/2025,,,4,2026-05-15,2,,,,,2,,,,,,
001Hr000028Zc7Y,"City Of Brady, TX",Texas,Municipality,Lucy Nemerov,5032,Nurture,Tier 3,0.75,31.1352,-99.3351,790ad0e0-ee70-4242-9d22-96fcf1fe5a64,Closed Lost,,,Alicia Gopal,10/14/2025,10/10/2025,,,13,2026-03-10,,5,,,8,,,,,,,
001Hr000028Zc7i,"City Of Sweetwater, TX",Texas,Municipality,Lucy Nemerov,10513,Open Opportunity,Tier 2,1.0,32.471,-100.4059,7fc78d65-7014-4043-a0dc-7c95fbd5d17b,Open,Meeting Booked,Top of Funnel,Lucy Nemerov,8/3/2026,3/5/2026,,Yes,6,2026-03-05,,1,,,5,,,,,,,
001Hr000028Zc7k,"City Of Freeport, TX",Texas,Municipality,Blake Anderson,10594,,Tier 2,1.0,28.9541,-95.3597,25ea01b4-69b8-48bd-b328-c1425194079a,,,,,,,,,10,2026-05-26,,,3,,,7,,,,,,
001Hr000028Zc83,"City Of Atlanta, TX",Texas,Municipality,Blake Anderson,5409,Nurture,Tier 3,0.75,33.1137,-94.1644,1dd54116-e52c-4549-bc74-24cc4b60630f,Closed Lost,,,Shane Lieberman,1/9/2024,1/5/2025,,,14,2026-04-20,12,,2,,,,,,,,,
001Hr000028Zc8Q,"City Of Post, TX",Texas,Municipality,Blake Anderson,4791,Nurture,Tier 3,0.75,33.1909,-101.3782,8b20105f-7670-4fcd-8413-f3f5fe807e3f,Closed Lost,,,Asher Rosenfeld,,1/5/2025,,,,,,,,,,,,,,,,
001Hr000028Zc8S,"Bastrop County, TX",Texas,County,Blake Anderson,94887,,Tier S,2.0,30.0459,-97.3517,e7f2b238-d0f9-4122-b36a-c0917a6b7706,,,,,,,,,7,2026-04-23,,,1,,6,,,,,,,
001Hr000028Zc8s,"City Of Angleton, TX",Texas,Municipality,Lucy Nemerov,19401,,Tier 2,1.0,29.1644,-95.4334,2e25ff90-1d19-49d0-ad71-db2a45c47e14,,,,,,,,,5,2025-12-08,,,,4,1,,,,,,,
001Hr000028Zc8v,"City Of Beeville, TX",Texas,Municipality,Emily Murnane,13641,1+ Module Live,Tier 2,1.0,28.4008,-97.7483,1ea1787c-65ff-4ec0-a37f-016b73679281,Closed Won,,,Shane Lieberman,1/18/2024,1/5/2025,"$21,000",,,,,,,,,,,,,,,
001Hr000028Zc93,"City Of South Houston, TX",Texas,Municipality,Lucy Nemerov,15878,,Tier 2,1.0,29.663,-95.2355,7bfdd951-56ac-4ee4-ac29-1ff962d5bb85,,,,,,,,,22,2026-05-04,15,7,,,,,,,,,,
001Hr000028Zc9A,"City Of Robstown, TX",Texas,Municipality,Lucy Nemerov,10157,,Tier 2,1.0,27.7903,-97.6689,ee48cb07-b19d-452e-bd14-fa28bed0bdfb,,,,,,,,,1,2025-11-20,,,,,1,,,,,,,
001Hr000028Zc9F,"City Of Alice, TX",Texas,Municipality,Lucy Nemerov,17761,Open Opportunity,Tier 2,1.0,27.7522,-98.0697,69cd1130-badf-4b22-afef-56c562b5fe54,Open,Initial Interest,Top of Funnel,Emily Murnane,,9/9/2025,,,15,2025-12-03,15,,,,,,,,,,,
001Hr000028Zc9K,"City Of Ingleside, TX",Texas,Municipality,Blake Anderson,9898,Open Opportunity,Tier 3,0.75,27.8778,-97.2117,88d70b45-7cdb-4160-abb9-256764e27963,Open,Initial Interest,Top of Funnel,Emily Murnane,,12/29/2025,,,19,2026-04-21,19,,,,,,,,,,,
001Hr000028Zc9L,"City Of Bay City, TX",Texas,Municipality,Lucy Nemerov,17882,,Tier 2,1.0,28.9828,-95.9694,cb73df05-9279-4227-beb8-a97254e96741,,,,,,,,,20,2026-04-09,15,5,,,,,,,,,,
001Hr000028Zc9P,"City Of Edna, TX",Texas,Municipality,Blake Anderson,5944,,Tier 3,0.75,28.9786,-96.6461,2d3c4390-2b32-4340-9504-ec8cd755f436,,,,,,,,,2,2026-02-05,,,2,,,,,,,,,
001Hr000028Zc9Z,City of Corpus Christi,Texas,Municipality,Blake Anderson,318168,,Tier S,2.0,27.7964,-97.403,0eabe38a-7826-4432-ac98-3911d8dd97ef,,,,,,,,,,,,,,,,,,,,,,
001Hr000028Zc9u,Waller County,Texas,County,Lucy Nemerov,55505,,Tier S,2.0,29.9752,-96.0256,e082c4b7-8b4b-4cc0-ad9f-fdc98de49e34,,,,,,,,,1,2026-04-28,,1,,,,,,,,,,
001Hr000028Zc9v,"City Of Lampasas, TX",Texas,Municipality,Blake Anderson,7517,,Tier 3,0.75,31.0638,-98.1817,99a7a5ae-af9c-4150-965e-acee6536b0a7,,,,,,,,,4,2026-02-18,,,4,,,,,,,,,
001Hr000028Zc9z,Brazoria County,Texas,County,Blake Anderson,368575,,Tier S,2.0,29.2132,-95.4778,e6078122-9d8f-4159-85cb-2bf1c7e9e51b,,,,,,,,,1,2025-12-04,,,1,,,,,,,,,
001Hr000028ZcA9,Tom Green County,Texas,County,Blake Anderson,119048,Open Opportunity,Tier S,2.0,31.3839,-100.4397,11668683-c255-4fbd-81f2-cc4878728d67,Open,Initial Interest,Top of Funnel,Ryan Minter,1/12/2026,1/7/2026,,,,,,,,,,,,,,,,
001Hr000028ZcAI,"City Of Port Neches, TX",Texas,Municipality,Lucy Nemerov,13416,All Modules Live,Tier 2,1.0,29.9913,-93.9585,4c62a7aa-f424-4903-a49a-d85196451fab,Closed Won,,,Leila Assil,6/12/2025,6/3/2025,"$5,000",,,,,,,,,,,,,,,
001Hr000028ZcAS,"City Of Silsbee, TX",Texas,Municipality,Blake Anderson,6851,Nurture,Tier 3,0.75,30.3491,-94.178,435d3c35-3106-44f1-b8cb-ecf36eca2d6d,Closed Lost,,,Alicia Gopal,12/29/2025,12/9/2025,,,6,2025-12-17,,,,,6,,,,,,,
001Hr000028ZcAX,"City Of Jasper, TX",Texas,Municipality,Blake Anderson,7285,,Tier 3,0.75,30.9208,-93.9969,a3c134cd-309d-4781-b782-ae37778cbbc1,,,,,,,,,8,2026-05-26,4,,,,,4,,,,,,
001Hr000028ZcAc,"City Of Santa Fe, TX",Texas,Municipality,Lucy Nemerov,12783,Nurture,Tier 2,1.0,29.3786,-95.1065,33c6285a-faae-4121-b7bf-25c18de2ad90,Closed Lost,,,Leila Assil,,1/30/2025,,,16,2026-05-04,8,8,,,,,,,,,,
001Hr000028ZcAm,Wilson County,Texas,County,Blake Anderson,49374,,Tier 1,1.5,29.2684,-98.0465,b9b98118-6d78-4aac-ab3b-76902dc5bf8d,,,,,,,,,,,,,,,,,,,,,,
001Hr000028ZcAr,Randall County,Texas,County,Blake Anderson,139176,,Tier S,2.0,34.902,-101.798,98497558-dac5-4443-b0a8-30cde599a1c1,,,,,,,,,,,,,,,,,,,,,,
001Hr000028ZcAw,"County of Victoria, TX",Texas,County,Blake Anderson,91280,,Tier S,2.0,28.7713,-97.0068,fafb22c2-7a05-490b-bf5c-a53b4e373063,,,,,,,,,9,2025-09-09,,,9,,,,,,,,,
001Hr000028ZcB1,"Potter County, TX",Texas,County,Lucy Nemerov,119043,,Tier S,2.0,35.4044,-101.9805,62ba4734-5096-49ec-beed-3598b35bdd37,,,,,,,,,,,,,,,,,,,,,,
001Hr000028ZcB6,San Patricio County,Texas,County,Lucy Nemerov,68600,,Tier S,2.0,28.0,-97.5247,ab3626a6-0ede-497f-bf18-cce7b32b6157,,,,,,,,,5,2026-02-10,,5,,,,,,,,,,
001Hr000028ZcBB,"County of Parker, TX",Texas,County,Lucy Nemerov,144803,,Tier S,2.0,32.7416,-97.8722,3726f9f6-2140-4dde-98e1-7613c897c365,,,,,,,,,1,2026-04-14,,1,,,,,,,,,,
001Hr000028ZcBG,"Grayson County, TX",Texas,County,Blake Anderson,134205,,Tier S,2.0,33.7062,-96.6638,7e473609-387a-4e24-982c-e3b369c536d1,,,,,,,,,8,2026-02-04,,,8,,,,,,,,,
001Hr000028ZcBQ,Galveston County,Texas,County,Blake Anderson,347084,,Tier S,2.0,29.3706,-94.9057,7a1839b9-6316-4a63-9c81-eb4944f01263,,,,,,,,,1,2025-12-04,,,1,,,,,,,,,
001Hr000028ZcBV,"County Of Coryell, TX",Texas,County,Lucy Nemerov,84232,,Tier S,2.0,31.4774,-97.8722,4be3da54-b166-4a77-97ea-7ec6c98b7464,,,,,,,,,,,,,,,,,,,,,,
001Hr000028ZcBW,"City Of Alvin, TX",Texas,Municipality,Blake Anderson,27576,Open Opportunity,Tier 1,1.5,29.4238,-95.2441,f5bd44de-f757-422f-b2b9-c870b3e4ee86,Open,Initial Interest,Top of Funnel,Granger West,,2/24/2025,,,23,2026-02-23,17,,1,5,,,,,,,,
001Hr000028ZcBb,"City Of Paris, TX",Texas,Municipality,Blake Anderson,24969,Nurture,Tier 2,1.0,33.6609,-95.5555,92f13525-bdd3-46e6-8236-e9ff889150fc,Closed Lost,,,Leila Assil,12/5/2024,1/5/2025,"$41,000",,7,2026-02-24,,,5,2,,,,,,,,
001Hr000028ZcBh,"City Of Galena Park, TX",Texas,Municipality,Lucy Nemerov,10461,,Tier 2,1.0,29.7336,-95.2302,a9516530-6403-4075-80d7-f8b5f3ec6508,,,,,,,,,16,2026-04-15,13,3,,,,,,,,,,
001Hr000028ZcBr,"City of Richardson, TX",Texas,Municipality,Blake Anderson,115904,,Tier S,2.0,32.9483,-96.7299,203f7f7c-29ce-484d-8346-9d58adc5d1dc,,,,,,,,,5,2026-01-29,,,5,,,,,,,,,
001Hr000028ZcC0,"City Of Pecos, TX",Texas,Municipality,Blake Anderson,12673,,Tier 2,1.0,31.4229,-103.4932,a6451bff-def2-449f-aecb-00cbd8404d92,,,,,,,,,15,2025-12-11,,,15,,,,,,,,,
001Hr000028ZcCQ,"City Of Murphy, TX",Texas,Municipality,Blake Anderson,21219,,Tier 2,1.0,33.0151,-96.613,3dbc7306-d685-4085-8196-a5cb815a1659,,,,,,,,,15,2026-04-16,3,,12,,,,,,,,,
001Hr000028ZcCV,"City Of Saginaw, TX",Texas,Municipality,Blake Anderson,24011,All Modules Live,Tier 2,1.0,32.8601,-97.3639,a4787afd-048e-4b36-8dbd-a91d0dd8b727,Closed Won,,,Asher Rosenfeld,7/24/2024,1/5/2025,"$11,040",,,,,,,,,,,,,,,
001Hr000028ZcCj,"City Of West University Place, TX",Texas,Municipality,Blake Anderson,14724,Nurture,Tier 2,1.0,29.718,-95.4338,ed27d9f9-9fdd-4cd3-bd0f-70ede2252794,Closed Lost,,,Emily Murnane,,2/12/2026,,,9,2026-02-19,1,,8,,,,,,,,,
001Hr000028ZcCk,"Town Of Fairview, TX",Texas,Municipality,Lucy Nemerov,10683,Open Opportunity,Tier 2,1.0,33.1579,-96.6317,9d227408-3989-4ff3-8b4c-d04afdbd0dc3,Closed Lost,,,Troy LeCaire,,1/5/2025,,,2,2026-04-28,,,,,,,,,2,,,
001Hr000028ZcCn,"City of Midland, TX",Texas,Municipality,Blake Anderson,130765,,Tier S,2.0,31.9996,-102.0757,32818244-58d6-4471-9e4c-ca93eea3d69f,,,,,,,,,11,2026-04-23,4,,,,,,7,,,,,
001Hr000028ZcCv,"City Of Perryton, TX",Texas,Municipality,Blake Anderson,8289,,Tier 3,0.75,36.4,-100.8026,a7ef8968-53bb-4a3d-a198-61937148a2db,,,,,,,,,12,2025-10-13,12,,,,,,,,,,,
001Hr000028ZcCx,"City Of Seminole, TX",Texas,Municipality,Blake Anderson,7026,,Tier 3,0.75,32.719,-102.6449,b13d6712-8d88-4606-97b6-0b191ca3a02c,,,,,,,,,10,2026-05-26,2,,,,,8,,,,,,
001Hr000028ZcD2,"City Of Alpine, TX",Texas,Municipality,Lucy Nemerov,5815,Nurture,Tier 3,0.75,30.3561,-103.6697,3b9211f4-4333-4930-b673-f92f5947f33a,Closed Lost,,,Shane Lieberman,7/24/2024,1/5/2025,,,1,2025-05-27,,,,1,,,,,,,,
001Hr000028ZcD8,"City Of Sulphur Springs, TX",Texas,Municipality,Lucy Nemerov,15995,,Tier 2,1.0,33.1384,-95.6011,84cbda8b-cfa9-41b2-8f9a-17affc158b9b,,,,,,,,,5,2026-02-10,,4,,,1,,,,,,,
001Hr000028ZcDK,"City Of Bastrop, TX",Texas,Municipality,Blake Anderson,10434,,Tier 2,1.0,30.1105,-97.3153,02f93ef7-9639-4175-a112-45839aa4ea8d,,,,,,,,,6,2026-04-17,6,,,,,,,,,,,
001Hr000028ZcDk,"City Of Forney, TX",Texas,Municipality,Blake Anderson,27256,Open Opportunity,Tier 1,1.5,32.7482,-96.4719,122e57eb-e99d-496c-8cc7-d9d8057dcfb3,Open,Initial Interest,Top of Funnel,Asher Rosenfeld,,1/5/2025,,,7,2026-04-22,2,,,5,,,,,,,,
001Hr000028ZcEr,"City Of Mineral Wells, TX",Texas,Municipality,Blake Anderson,15688,Open Opportunity,Tier 2,1.0,32.8085,-98.1128,62ae6a96-367d-4893-bdea-bc4dfa38bfe2,Open,Sales Qualified,Mid Funnel,Emily Murnane,4/20/2026,4/16/2026,,Yes,5,2026-04-16,3,,2,,,,,,,,,
001Hr000028ZcEx,"City of Edinburg, TX",Texas,Municipality,Blake Anderson,98759,Open Opportunity,Tier S,2.0,26.3017,-98.1633,21f668b5-88a9-40ba-8c02-a6c138a9d099,,,,,,,,,14,2026-04-27,2,,12,,,,,,,,,
001Hr000028ZcFV,"City Of Oak Point, TX",Texas,Municipality,Emily Murnane,5557,1+ Module Live,Tier 3,0.75,33.1901,-96.9917,b3b61bfa-6a88-43fd-be3c-3a69bd7ea4d6,Closed Won,,,Granger West,9/5/2025,9/3/2025,"$24,000",,,,,,,,,,,,,,,
001Hr000028ZcFW,"City Of Fate, TX",Texas,Municipality,Lucy Nemerov,21013,Nurture,Tier 2,1.0,32.9432,-96.3904,f1199cf6-d803-42e7-b59c-7ea285543f73,Closed Lost,,,Troy LeCaire,,1/5/2025,,,11,2026-03-13,8,3,,,,,,,,,,
001Hr000028ZcFX,"City Of Elgin, TX",Texas,Municipality,Blake Anderson,10549,Nurture,Tier 2,1.0,30.3497,-97.3703,0c194da3-e673-4b57-a31b-3b6e26271c74,Closed Lost,,,Troy LeCaire,,1/5/2025,,,15,2025-12-01,,,15,,,,,,,,,
001Hr000028ZcFc,"City Of Manor, TX",Texas,Municipality,Emily Murnane,18285,1+ Module Live,Tier 2,1.0,30.3411,-97.5577,4748a91c-8bd8-4cdc-92d5-ba7ec26c0b4a,Closed Won,,,Leila Assil,7/25/2025,7/10/2025,"$34,000",,4,2025-07-10,,,,4,,,,,,,,
001Hr000028ZcFh,City of Round Rock,Texas,Municipality,Blake Anderson,117735,,Tier S,2.0,30.5083,-97.6789,ccb086a6-73d8-4eab-8b92-bbe8dd098451,,,,,,,,,1,2026-04-14,1,,,,,,,,,,,
001Hr000028ZcGB,"City Of Lago Vista, TX",Texas,Municipality,Blake Anderson,9348,Open Opportunity,Tier 3,0.75,30.4602,-97.9883,9f7164d0-5db7-4fd6-8cf3-3406e4eb7da0,Open,Initial Interest,Top of Funnel,Asher Rosenfeld,,1/5/2025,,,10,2025-12-15,3,,,7,,,,,,,,
001Hr000028ZcGG,"City Of Cedar Park, TX",Texas,Municipality,Lucy Nemerov,78693,,Tier S,2.0,30.5052,-97.8203,4c323af4-c422-4d9f-928f-ded18c1849e6,,,,,,,,,24,2026-05-07,,5,,,,,19,,,,,
001Hr000028ZcGM,"City Of Azle, TX",Texas,Municipality,Blake Anderson,13518,Open Opportunity,Tier 2,1.0,32.8951,-97.5459,149b6024-2d3a-4b7b-9133-8b22df6fda3d,Open,Initial Interest,Top of Funnel,Ryan Minter,,8/25/2025,,,12,2026-01-28,,,12,,,,,,,,,
001Hr000028ZcGN,"City Of Hondo, TX",Texas,Municipality,Blake Anderson,8387,,Tier 3,0.75,29.3475,-99.1414,a8c78bfd-e465-41ae-a48c-8e0301458cff,,,,,,,,,19,2026-05-26,,,,18,,1,,,,,,
001Hr000028ZcGh,"City Of Brenham, TX",Texas,Municipality,Emily Murnane,18117,Nurture,Tier 2,1.0,30.1669,-96.3977,0e7252ec-2e6e-4be3-8202-e4d2a57dd359,Closed Lost,,,Troy LeCaire,,1/5/2025,,,4,2026-02-05,4,,,,,,,,,,,
001Hr000028ZcHr,City of Brownsville,Texas,Municipality,Blake Anderson,185849,,Tier S,2.0,25.9017,-97.4975,12e2f0f9-e9b9-4657-ac7d-7cd2e2827512,,,,,,,,,10,2026-05-26,,,,,,10,,,,,,
001Hr000028ZcIB,"City Of Uvalde, TX",Texas,Municipality,Emily Murnane,15312,,Tier 2,1.0,29.2097,-99.7862,d6c0388c-9ce5-4ba2-8636-6bce39dfc187,,,,,,,,,4,2026-02-02,1,,,3,,,,,,,,
001Hr000028ZcIE,"City Of Gilmer, TX",Texas,Municipality,Emily Murnane,4894,Implementation,Tier 3,0.75,32.7287,-94.9424,34876cb4-583c-4339-8f6f-bbaa987c587e,Closed Won,,,Leila Assil,9/5/2025,9/4/2025,"$8,000",,2,2025-09-05,,,,2,,,,,,,,
001Hr000028ZcIa,"City Of Corinth, TX",Texas,Municipality,Emily Murnane,22690,Nurture,Tier 2,1.0,33.154,-97.0647,4e8b0345-da39-4d25-8569-700d3c731366,Closed Lost,,,Troy LeCaire,,1/5/2025,,,10,2026-02-18,10,,,,,,,,,,,
001Hr000028ZcIx,"City Of Lindale, TX",Texas,Municipality,Lucy Nemerov,6313,Open Opportunity,Tier 3,0.75,32.5157,-95.4094,0fe74abb-9e6e-45e6-a4de-d90d88283752,Open,Initial Interest,Top of Funnel,Lucy Nemerov,,4/10/2026,,Yes,35,2026-05-18,,35,,,,,,,,,,
001Hr000028ZcJM,"City Of Willis, TX",Texas,Municipality,Blake Anderson,6710,All Modules Live,Tier 3,0.75,30.4249,-95.4799,676af17f-0b0a-4d85-bf90-894e277551d3,Closed Won,,,Asher Rosenfeld,,1/5/2025,"$13,000",,,,,,,,,,,,,,,
001Hr000028ZcJb,"City Of Slaton, TX",Texas,Municipality,Emily Murnane,5811,,Tier 3,0.75,33.4373,-101.6435,ada17803-17b5-48d8-8012-c9e93a251caf,,,,,,,,,16,2026-03-20,16,,,,,,,,,,,
001Hr000028ZcJf,"Town Of White Oak, TX",Texas,Municipality,Emily Murnane,6169,,Tier 3,0.75,32.5279,-94.8613,f3042692-e68f-4437-b365-ee16085fb6c6,,,,,,,,,5,2026-02-24,4,,,1,,,,,,,,
001Hr000028ZcJr,"City Of Sealy, TX",Texas,Municipality,Lucy Nemerov,6775,Nurture,Tier 3,0.75,29.7808,-96.1572,b00f39dc-dd4c-4949-bf2a-d7c1bc6ada1f,Closed Lost,,,Troy LeCaire,,1/5/2025,,,5,2026-02-25,,5,,,,,,,,,,
001Hr000028ZcKA,"City Of Canyon, TX",Texas,Municipality,Lucy Nemerov,15221,Nurture,Tier 2,1.0,34.9803,-101.9188,258e865e-1d6e-41aa-9cc0-c7d03b5fe038,Open,Initial Interest,Top of Funnel,Alicia Gopal,,2/12/2026,,Yes,63,2026-05-05,,16,,,47,,,,,,,
001Hr000028ZcLc,"Town Of Lake Dallas, TX",Texas,Municipality,Blake Anderson,7722,,Tier 3,0.75,33.1193,-97.0256,a667c559-2c71-4f2a-930e-0a0c4b74d182,,,,,,,,,14,2025-10-30,14,,,,,,,,,,,
001Hr000028ZcLr,"City Of Benbrook, TX",Texas,Municipality,Lucy Nemerov,24605,,Tier 2,1.0,32.6732,-97.4606,a7d7197f-1728-4f66-857c-48a0d7bc08e2,,,,,,,,,32,2026-05-12,12,20,,,,,,,,,,
001Hr000028ZcLs,"City Of Longview, TX",Texas,Municipality,Blake Anderson,81762,,Tier S,2.0,32.5007,-94.7405,298f5460-9ec9-42c2-a812-85bf725910fe,,,,,,,,,14,2025-12-01,,,14,,,,,,,,,
001Hr000028ZcLt,"City Of La Feria, TX",Texas,Municipality,Lucy Nemerov,6814,Open Opportunity,Tier 3,0.75,26.1591,-97.8241,3700858a-38d4-464b-b77d-17f268469660,Open,Initial Interest,Top of Funnel,Alicia Gopal,10/17/2025,10/6/2025,,,12,2025-10-24,,,,,12,,,,,,,
001Hr000028ZcLx,"City Of Borger, TX",Texas,Municipality,Lucy Nemerov,12419,,Tier 2,1.0,35.6678,-101.3974,375910f3-f9dd-41c5-8aa4-bee04c45a28f,,,,,,,,,4,2026-02-09,,3,,,1,,,,,,,
001Hr000028ZcMH,"City of Denton, TX",Texas,Municipality,Blake Anderson,139704,Open Opportunity,Tier S,2.0,33.2166,-97.1324,beca6377-ad56-4d64-ba9c-b027fc7bc022,Open,Initial Interest,Top of Funnel,Ryan Minter,,12/8/2025,,,28,2026-04-06,,,28,,,,,,,,,
001Hr000028ZcMI,"City Of Alamo, TX",Texas,Municipality,Blake Anderson,20017,,Tier 2,1.0,26.1837,-98.1231,7e131e17-5e56-49e3-825f-5aedeb7625f4,,,,,,,,,5,2026-04-14,1,,4,,,,,,,,,
001Hr000028ZcMN,"Town Of Sanger, TX",Texas,Municipality,Blake Anderson,9380,,Tier 3,0.75,33.3632,-97.1739,60b200da-e77c-4fd1-be20-ac72d8f519dd,,,,,,,,,10,2026-05-21,5,,,,,5,,,,,,
001Hr000028ZcMV,"City Of Burkburnett, TX",Texas,Municipality,Lucy Nemerov,10975,Open Opportunity,Tier 2,1.0,34.0979,-98.5706,3b588b76-a7a4-4260-8ac9-d1dccbd50f23,Open,Initial Interest,Top of Funnel,Jason Ginsberg,4/24/2026,4/15/2026,,,7,2026-05-18,,7,,,,,,,,,,
001Hr000028ZcMj,"Town Of Trophy Club, TX",Texas,Municipality,Lucy Nemerov,13745,Open Opportunity,Tier 2,1.0,32.9979,-97.1836,9436f5ec-aa86-4b69-8837-530c3ae0219b,Open,Initial Interest,Top of Funnel,Leila Assil,,8/8/2025,,Yes,13,2025-11-20,9,,,4,,,,,,,,
001Hr000028ZcND,"City Of Bulverde, TX",Texas,Municipality,Blake Anderson,5996,,Tier 3,0.75,29.7979,-98.4229,2e5ad4e7-30f9-403b-a972-7fef4d708f9e,,,,,,,,,13,2026-05-14,,,,10,,3,,,,,,
001Hr000028ZcOY,"City Of Joshua, TX",Texas,Municipality,Blake Anderson,8098,,Tier 3,0.75,32.4615,-97.3881,7a31f51a-6559-472c-a91b-eb9890e228e0,,,,,,,,,11,2026-05-19,4,,,,,7,,,,,,
001Hr000028ZcOk,"City Of Palestine, TX",Texas,Municipality,Emily Murnane,18756,Nurture,Tier 2,1.0,31.7621,-95.6308,8617893b-f397-4b7f-9f09-98a1b5d26f99,Closed Lost,,,Shane Lieberman,7/31/2024,1/5/2025,,,10,2026-02-20,10,,,,,,,,,,,
001Hr000028ZcOr,"City Of Glenn Heights, TX",Texas,Municipality,Blake Anderson,17127,Open Opportunity,Tier 2,1.0,32.5607,-96.8569,29e8b0f2-4eb4-479e-afb9-5a53980a9e9c,Open,Initial Interest,Top of Funnel,Ryan Minter,,10/22/2025,,,5,2026-04-22,2,,3,,,,,,,,,
001Hr000028ZcOu,"City Of Graham, TX",Texas,Municipality,Blake Anderson,8765,Nurture,Tier 3,0.75,33.1071,-98.5895,76bf539e-7d67-487c-93ff-0f54fca69c43,Closed Lost,,,Shane Lieberman,12/22/2023,1/5/2025,,,8,2026-05-15,2,,,,,6,,,,,,
001Hr000028ZcPF,"City Of Hereford, TX",Texas,Municipality,Emily Murnane,14779,Open Opportunity,Tier 2,1.0,34.8151,-102.3977,999669ef-fd4c-48c4-ab72-720dcf77d819,Open,Initial Interest,Top of Funnel,Granger West,,2/24/2025,,,10,2026-03-13,7,,,,,,,3,,,,
001Hr000028ZcPO,City of Plano,Texas,Municipality,Blake Anderson,282181,,Tier S,2.0,33.0217,-96.698,8c27fb0d-dbc3-4bcd-8291-1f4d4eda9356,,,,,,,,,1,2026-03-09,,,1,,,,,,,,,
001Hr000028ZcPj,City of Irving,Texas,Municipality,Blake Anderson,254184,,Tier S,2.0,32.8136,-96.9547,5226315f-08a8-42fd-9f96-221df00c2229,,,,,,,,,,,,,,,,,,,,,,
001Hr000028ZcPn,"City Of Pampa, TX",Texas,Municipality,Lucy Nemerov,16474,Open Opportunity,Tier 2,1.0,35.5334,-100.9719,4986a7f3-fa95-4b32-9db8-c5539338881b,Open,Initial Interest,Top of Funnel,Asher Rosenfeld,,1/5/2025,,,,,,,,,,,,,,,,
001Hr000028ZcPu,"City Of Jacksonville, TX",Texas,Municipality,Lucy Nemerov,14074,,Tier 2,1.0,31.9638,-95.2705,b4cf33ac-7fb9-42db-b442-afbb40ad69c6,,,,,,,,,19,2026-05-05,4,15,,,,,,,,,,
001Hr000028ZcQ9,"City Of Bridgeport, TX",Texas,Municipality,Lucy Nemerov,5972,,Tier 3,0.75,33.2101,-97.7548,c5911722-71a6-42d8-83c4-86f232d4ba64,,,,,,,,,12,2026-05-06,,9,,,3,,,,,,,
001Hr000028ZcQD,"City Of Roanoke, TX",Texas,Municipality,Lucy Nemerov,9878,Nurture,Tier 3,0.75,33.004,-97.2258,b47bfabc-843d-44c2-bb18-0fec3477a2ea,Closed Lost,,,Asher Rosenfeld,,1/5/2025,,,18,2026-05-06,,18,,,,,,,,,,
001Hr000028ZcQR,"City Of Boerne, TX",Texas,Municipality,Lucy Nemerov,19109,Nurture,Tier 2,1.0,29.7947,-98.732,3e8de431-1b42-4a6c-8d32-0f185d9e350b,Closed Lost,,,Asher Rosenfeld,,1/5/2025,,,21,2026-05-06,,19,,2,,,,,,,,
001Hr000028ZcR0,"City Of Muleshoe, TX",Texas,Municipality,Blake Anderson,5090,Open Opportunity,Tier 3,0.75,34.2265,-102.7238,fe090fdc-dcbd-4442-ae4d-d9630f250860,Open,Initial Interest,Top of Funnel,Ryan Minter,4/29/2026,4/20/2026,,,7,2026-05-08,3,,4,,,,,,,,,
001Hr000028ZcRM,"City Of Athens, TX",Texas,Municipality,Blake Anderson,12890,,Tier 2,1.0,32.2049,-95.8555,c7c81d0d-4e75-41a1-81e4-0dd988b7da2a,,,,,,,,,2,2025-11-13,,,2,,,,,,,,,
001Hr000028ZcRP,City of Lubbock,Texas,Municipality,Blake Anderson,255537,Open Opportunity,Tier S,2.0,33.5845,-101.8552,05a985d1-89fe-4d64-b120-246cb1d5760f,Open,Meeting Booked,Top of Funnel,Leila Assil,8/25/2025,8/8/2025,,,3,2026-01-20,,,2,1,,,,,,,,
001Hr000028ZcRk,"City Of Pearsall, TX",Texas,Municipality,Emily Murnane,7637,,Tier 3,0.75,28.8922,-99.095,4786315f-f3cd-45d1-b051-3e5ec4783006,,,,,,,,,18,2026-01-12,3,,,15,,,,,,,,
001Hr000028ZcRu,"City Of Red Oak, TX",Texas,Municipality,Blake Anderson,15364,Open Opportunity,Tier 2,1.0,32.5332,-96.8153,f2879af9-55ce-46c7-8eba-fad8c4eca680,Open,Initial Interest,Top of Funnel,Leila Assil,1/7/2025,1/5/2025,,,2,2025-09-25,2,,,,,,,,,,,
001Hr000028ZcSO,"City Of Princeton, TX",Texas,Municipality,Blake Anderson,20046,Recent Competitor Purchase,Tier 2,1.0,33.1742,-96.4989,da7ad9ba-c248-442c-b549-c5756deaf6fa,Closed Lost,,,Quinzel Perry,10/25/2024,1/5/2025,"$75,000",,6,2026-04-23,2,,,4,,,,,,,,
001Hr000028ZcSr,"City Of Prairie View, TX",Texas,Municipality,Lucy Nemerov,6843,Nurture,Tier 3,0.75,30.0933,-95.9877,3f5ea4ea-373e-468c-bef9-a03ce174a30b,,,,,,,,,2,2026-02-25,,2,,,,,,,,,,
001Hr000028ZcT6,"City Of Fredericksburg, TX",Texas,Municipality,Emily Murnane,11072,Nurture,Tier 2,1.0,30.2764,-98.8739,90099a81-f9d3-4fb4-bf0d-29750d3f487d,Closed Lost,,,Emily Murnane,9/23/2025,9/5/2025,,,9,2025-09-23,9,,,,,,,,,,,
001Hr000028ZcTP,"City Of Plainview, TX",Texas,Municipality,Blake Anderson,19739,Open Opportunity,Tier 2,1.0,34.1845,-101.7068,437ece20-d065-4ec8-b759-64a714a8907a,Closed Lost,,,Leila Assil,11/20/2024,1/5/2025,,,3,2026-04-27,3,,,,,,,,,,,
001Hr000028ZcTU,City of Amarillo,Texas,Municipality,Blake Anderson,200371,Open Opportunity,Tier S,2.0,35.207,-101.832,12ccc71b-7adf-49aa-9351-42a54d00650a,Open,Initial Interest,Top of Funnel,Ryan Minter,11/18/2025,11/10/2025,,,2,2026-01-06,,,2,,,,,,,,,
001Hr000028ZcTZ,"City Of Littlefield, TX",Texas,Municipality,Blake Anderson,5871,,Tier 3,0.75,33.9173,-102.3249,6d58beb1-4fc2-47f2-9bb5-3a7cb595fc88,,,,,,,,,11,2025-12-17,11,,,,,,,,,,,
001Hr000028ZcTg,"City Of Port Isabel, TX",Texas,Municipality,Blake Anderson,5094,Nurture,Tier 3,0.75,26.0734,-97.2086,e8888867-01a1-4ea7-a028-fd7c72b8798b,Closed Lost,,,Ryan Minter,2/12/2026,2/5/2026,,,13,2026-02-24,,,13,,,,,,,,,
001Hr000028ZcTk,"City Of Heath, TX",Texas,Municipality,Lucy Nemerov,10266,,Tier 2,1.0,32.8365,-96.475,32a4604c-8d56-4d0e-82b1-6b214795a952,,,,,,,,,12,2026-02-05,,5,,7,,,,,,,,
001Hr000028ZcTu,"City Of Crystal City, TX",Texas,Municipality,Blake Anderson,6335,,Tier 3,0.75,28.6775,-99.8281,7a8fcdaa-1dca-49a7-8ea7-9ea30dd81459,,,,,,,,,32,2025-12-17,32,,,,,,,,,,,
001Hr000028ZcTz,"City Of Ennis, TX",Texas,Municipality,Blake Anderson,21210,,Tier 2,1.0,32.3293,-96.6253,4bc9c471-5c4c-4222-b218-17d94bfc22bc,,,,,,,,,19,2026-02-18,,,1,18,,,,,,,,
001Hr000028ZcU4,"City Of Willow Park, TX",Texas,Municipality,Emily Murnane,5194,Open Opportunity,Tier 3,0.75,32.7626,-97.6506,d537139e-301c-4b6a-b6a8-e4110912af7d,Open,Verbal,Mid Funnel,Quinzel Perry,7/10/2025,7/10/2025,"$31,000",Yes,11,2025-06-24,,,,,,,,11,,,,
001Hr000028ZcU6,"City of Primera, TX",Texas,Municipality,Blake Anderson,5025,,Tier 3,0.75,26.2259,-97.758,6075d97c-bcb2-4002-81bd-a267cf6c8f3c,,,,,,,,,12,2026-04-20,,,2,10,,,,,,,,
001Hr000028ZcU9,"City Of Richland Hills, TX",Texas,Municipality,Lucy Nemerov,8484,Open Opportunity,Tier 3,0.75,32.8092,-97.2317,80bde62b-ba03-4ffc-be46-41a02da598aa,Open,Initial Interest,Top of Funnel,Lucy Nemerov,2/18/2026,2/10/2026,,Yes,1,2026-02-10,,1,,,,,,,,,,
001Hr000028ZcUE,City of Wake Village,Texas,Municipality,Blake Anderson,5611,,Tier 3,0.75,33.4268,-94.1063,1652c672-e99b-4d6d-beff-0f30e00a7ab6,,,,,,,,,1,2026-02-25,,,1,,,,,,,,,
001Hr000028ZcUF,"City Of Decatur, TX",Texas,Municipality,Blake Anderson,6875,All Modules Live,Tier 3,0.75,33.2343,-97.5861,13edd447-4ff1-4433-ae08-bbca076ad5fe,Closed Won,,,Asher Rosenfeld,,1/5/2025,"$20,000",,,,,,,,,,,,,,,
001Hr000028ZcUP,"City Of Anthony, TX",Texas,Municipality,Lucy Nemerov,3665,Open Opportunity,Tier 3,0.75,31.9993,-106.6055,f57c8ccd-d028-49c9-b320-7418257500d3,Open,Initial Interest,Top of Funnel,Lucy Nemerov,,4/13/2026,,,3,2026-04-13,,3,,,,,,,,,,
001Hr000028ZcUR,"City Of Hidalgo, TX",Texas,Municipality,Lucy Nemerov,14239,,Tier 2,1.0,26.1004,-98.2631,91e5da47-1d16-478f-a26d-1640f1577828,,,,,,,,,21,2026-03-18,,1,,2,18,,,,,,,
001Hr000028ZcUS,"City Of Everman, TX",Texas,Municipality,Blake Anderson,6067,,Tier 3,0.75,32.631,-97.2892,758b89f3-43cb-4740-ad7d-6786e99cd85a,,,,,,,,,19,2025-11-03,19,,,,,,,,,,,
001Hr000028ZcUX,"City Of Crowley, TX",Texas,Municipality,Blake Anderson,19333,Open Opportunity,Tier 2,1.0,32.579,-97.3625,afa32cab-5786-481d-9cbc-ef8909770832,Open,Initial Interest,Top of Funnel,Asher Rosenfeld,,1/5/2025,,Yes,17,2026-02-18,,,17,,,,,,,,,
001Hr000028ZcUZ,"City Of Navasota, TX",Texas,Municipality,Blake Anderson,8068,,Tier 3,0.75,30.3885,-96.0882,3c7843df-f782-488f-bce3-a9f230c2f478,,,,,,,,,4,2026-05-26,3,,,,,1,,,,,,
001Hr000028ZcUh,"City Of Kerrville, TX",Texas,Municipality,Emily Murnane,24477,,Tier 2,1.0,30.0474,-99.1403,041788bf-d367-4c3e-993f-f5298b340f3f,,,,,,,,,23,2026-04-09,23,,,,,,,,,,,
001Hr000028ZcUm,"City Of Carrizo Springs, TX",Texas,Municipality,Blake Anderson,4833,,Tier 3,0.75,28.5219,-99.8606,3438f687-da12-4fb9-a29f-7f356fb5dff4,,,,,,,,,3,2026-02-26,,,3,,,,,,,,,
001Hr000028ZcUr,"City Of Marble Falls, TX",Texas,Municipality,Emily Murnane,7227,Nurture,Tier 3,0.75,30.5782,-98.2729,04f9b491-1f05-4715-b5f3-f6f1351f71aa,Closed Lost,,,Troy LeCaire,,1/5/2025,"$10,000",,5,2025-11-12,2,,,3,,,,,,,,
001Hr000028ZcUw,"City Of Gonzales, TX",Texas,Municipality,Emily Murnane,7098,,Tier 3,0.75,29.5016,-97.4525,3f395c92-783c-4f52-851e-87d4a7018096,,,,,,,,,1,2026-02-19,,,,1,,,,,,,,
001Hr000028ZcV1,"City Of Keene, TX",Texas,Municipality,Lucy Nemerov,6346,Nurture,Tier 3,0.75,32.3968,-97.3239,111bc452-47f6-44c0-bb51-f2f991789772,Closed Lost,,,Shane Lieberman,1/18/2024,1/5/2025,"$17,000",,5,2026-02-13,,5,,,,,,,,,,
001Hr000028ZcV2,"City Of Mount Pleasant, TX",Texas,Municipality,Lucy Nemerov,16079,Open Opportunity,Tier 2,1.0,33.1568,-94.9683,8af60bac-d1b1-4a00-835e-570f92fac9d9,Open,Initial Interest,Top of Funnel,Lucy Nemerov,,3/31/2026,,,16,2026-05-14,,11,,5,,,,,,,,
001Hr000028ZcV7,"City Of Commerce, TX",Texas,Municipality,Blake Anderson,8828,,Tier 3,0.75,33.2473,-95.9115,df525b8f-b145-4409-b255-a09c065c9648,,,,,,,,,8,2025-12-15,,,8,,,,,,,,,
001Hr000028ZcVE,"City Of Krum, TX",Texas,Municipality,Blake Anderson,5823,Open Opportunity,Tier 3,0.75,33.2615,-97.2381,93a87042-e8d4-4901-8c48-8dcfaa6fb486,Open,Initial Interest,Top of Funnel,Alicia Gopal,,10/23/2025,,,3,2026-02-02,,,,,2,,1,,,,,
001Hr000028ZcVF,City of Garland,Texas,Municipality,Blake Anderson,245075,,Tier S,2.0,32.9136,-96.6364,786a7829-a06d-488a-8dfd-ffed8439b67d,,,,,,,,,1,2026-02-25,,,1,,,,,,,,,
001Hr000028ZcVG,"City Of Luling, TX",Texas,Municipality,Blake Anderson,5518,Nurture,Tier 3,0.75,29.6805,-97.6475,830675c9-33c0-4b97-83c7-deacc7e13cba,Closed Lost,,,Shane Lieberman,1/17/2024,1/5/2025,"$9,500",,1,2025-09-02,,,,1,,,,,,,,
001Hr000028ZcVN,Town of Flower Mound,Texas,Municipality,Blake Anderson,75050,,Tier S,2.0,33.0146,-97.097,73d4dba8-7bac-4629-83c2-75b003cce2b9,,,,,,,,,,,,,,,,,,,,,,
001Hr000028ZcVV,"City Of Sansom Park, TX",Texas,Municipality,Lucy Nemerov,5388,Open Opportunity,Tier 3,0.75,32.806,-97.4031,21c0a180-4aed-4805-a6d9-c22bf37e258b,Open,Initial Interest,Top of Funnel,Leila Assil,11/5/2024,1/5/2025,,,21,2026-05-15,,20,,1,,,,,,,,
001Hr000028ZcVg,"City Of Center, TX",Texas,Municipality,Lucy Nemerov,5133,,Tier 3,0.75,31.7953,-94.1803,96a8a009-5175-4b1f-9f42-adb95acff500,,,,,,,,,52,2026-05-21,,33,,,19,,,,,,,
001Hr000028ZcWe,"City Of Marshall, TX",Texas,Municipality,Blake Anderson,22662,Open Opportunity,Tier 2,1.0,32.5449,-94.3674,9cb2e90f-1443-43b6-addf-c6d33284a803,Open,Initial Interest,Top of Funnel,Emily Murnane,5/5/2026,4/21/2026,,,35,2026-05-19,11,,,23,,1,,,,,,
001Hr000028ZcWo,"City Of Roma, TX",Texas,Municipality,Blake Anderson,11505,Nurture,Tier 2,1.0,26.4089,-99.0157,55329ace-1d95-40a7-87ca-273167a93594,Closed Lost,,,Shane Lieberman,10/17/2024,1/5/2025,,,17,2026-04-27,4,,13,,,,,,,,,
001Hr000028ZcXH,"City Of Denison, TX",Texas,Municipality,Blake Anderson,25179,,Tier 1,1.5,33.7557,-96.5367,f90c1231-e4b1-4519-936a-1b48ef6ef78c,,,,,,,,,10,2026-01-12,,,,,10,,,,,,,
001Hr000028ZcXM,"City Of Kilgore, TX",Texas,Municipality,Lucy Nemerov,13383,Open Opportunity,Tier 2,1.0,32.3863,-94.8758,bb512b3b-ba2f-4aa5-a762-86ca7d6284f3,Open,Initial Interest,Top of Funnel,Emily Murnane,,9/5/2025,,,35,2026-05-18,23,12,,,,,,,,,,
001Hr000028ZcXR,"City Of Carthage, TX",Texas,Municipality,Blake Anderson,6533,,Tier 3,0.75,32.1574,-94.3374,6903839c-ed13-403b-af1d-7d9e96c3ca2e,,,,,,,,,10,2026-05-20,4,,,,,6,,,,,,
001Hr000028ZcXS,"City Of Bryan, TX",Texas,Municipality,Blake Anderson,86866,,Tier S,2.0,30.6744,-96.37,5cb5576f-b393-479e-a88f-ed2e3ad5396b,,,,,,,,,8,2026-04-22,1,,7,,,,,,,,,
001Hr000028ZcXW,"City of Gun Barrel City, TX",Texas,Municipality,Blake Anderson,6160,Open Opportunity,Tier 3,0.75,32.331,-96.1516,720d4e64-507c-4259-84e4-bcee497fe984,Open,Initial Interest,Top of Funnel,Emily Murnane,,9/15/2025,,,2,2025-09-15,2,,,,,,,,,,,
001Hr000028ZcXm,"City Of Lucas, TX",Texas,Municipality,Blake Anderson,8029,Open Opportunity,Tier 3,0.75,33.0843,-96.5767,b29bcc93-2c5d-46b1-bcd7-acb6a02f7f7c,Open,Initial Interest,Top of Funnel,Asher Rosenfeld,,1/5/2025,,,6,2025-09-03,,,,6,,,,,,,,
001Hr000028ZcXx,"City Of Kaufman, TX",Texas,Municipality,Blake Anderson,7379,,Tier 3,0.75,32.589,-96.3089,5a649139-d53a-46f2-b60a-316b0c79f578,,,,,,,,,3,2026-03-02,,,3,,,,,,,,,
001Hr000028ZcYA,"City Of Horizon City, TX",Texas,Municipality,Lucy Nemerov,23162,,Tier 2,1.0,31.6926,-106.2075,5f3b1149-2548-4b8c-9d1b-b51eb1a5737d,,,,,,,,,39,2026-02-12,,8,,,31,,,,,,,
001Hr000028ZcYL,City of Lewisville,Texas,Municipality,Blake Anderson,110077,Nurture,Tier S,2.0,33.0463,-96.9942,032f4268-00b3-4912-a892-ad7bbb3457e1,Closed Lost,,,Joe del Rosario,10/29/2024,1/5/2025,,,42,2026-05-26,,,2,,,23,17,,,,,
001Hr000028ZcYW,City of McAllen,Texas,Municipality,Blake Anderson,141941,,Tier S,2.0,26.2034,-98.23,a5058d12-a3db-428c-87d3-dc336048caad,,,,,,,,,13,2025-12-15,,,13,,,,,,,,,
001Hr000028ZcYZ,"Town Of Livingston, TX",Texas,Municipality,Blake Anderson,5829,Open Opportunity,Tier 3,0.75,30.711,-94.933,8957b6f8-2c62-4289-9ce4-35081d7691ba,Open,Meeting Booked,Top of Funnel,Leila Assil,8/5/2025,7/7/2025,,Yes,11,2026-01-27,,,3,8,,,,,,,,
001Hr000028ZcYe,"City Of Childress, TX",Texas,Municipality,Lucy Nemerov,5844,Open Opportunity,Tier 3,0.75,34.4265,-100.204,1eecadcd-1e43-4270-a4b3-4a68d3203355,Open,Initial Interest,Top of Funnel,Leila Assil,11/21/2024,1/5/2025,,,11,2026-05-05,,9,,2,,,,,,,,
001Hr000028ZcYj,"City of Wichita Falls, TX",Texas,Municipality,Blake Anderson,102563,,Tier S,2.0,33.9137,-98.4934,8b693460-2e1e-4248-a7f8-c7105107e8b7,,,,,,,,,14,2026-02-05,,,8,6,,,,,,,,
001Hr000028ZcYk,"City Of Progreso, TX",Texas,Municipality,Blake Anderson,4904,,Tier 3,0.75,26.0923,-97.9572,718f9b1d-4222-473e-a683-557e0cc4a5a0,,,,,,,,,16,2025-11-19,,,,,16,,,,,,,
001Hr000028ZcYo,"City Of Gainesville, TX",Texas,Municipality,Blake Anderson,17576,,Tier 2,1.0,33.6259,-97.1333,9eddc04e-5e77-4927-82f8-7e609f52c091,,,,,,,,,3,2026-05-20,2,,,,,1,,,,,,
001Hr000028ZcZ8,"City Of San Benito, TX",Texas,Municipality,Blake Anderson,24780,Open Opportunity,Tier 2,1.0,26.1326,-97.6311,d5891263-4056-4870-b251-378bb1cd4da9,Open,Initial Interest,Top of Funnel,Asher Rosenfeld,,1/5/2025,,,2,2025-11-14,,,2,,,,,,,,,
001Hr000028ZcZD,"City Of Elsa, TX",Texas,Municipality,Blake Anderson,5680,,Tier 3,0.75,26.2934,-97.9931,d66b4fe6-ebfa-4a52-b13c-ce5f6ee8d688,,,,,,,,,12,2025-10-06,12,,,,,,,,,,,
001Hr000028ZcZI,"City Of Alton, TX",Texas,Municipality,Lucy Nemerov,18860,Open Opportunity,Tier 2,1.0,26.2873,-98.3134,dc8ab809-2611-49da-a87f-487c303457b4,Open,Initial Interest,Top of Funnel,Lucy Nemerov,3/3/2026,2/26/2026,,,28,2026-05-05,21,7,,,,,,,,,,
001Hr000028ZcZO,"City Of Raymondville, TX",Texas,Municipality,Blake Anderson,10510,,Tier 2,1.0,26.4815,-97.7831,4131de7e-33bc-4fb2-887c-6d3701dded16,,,,,,,,,6,2026-05-14,3,,,,,3,,,,,,
001Hr000028ZcZS,"City Of Mercedes, TX",Texas,Municipality,Emily Murnane,16312,,Tier 2,1.0,26.1498,-97.9136,5a17094f-e58f-4152-a0cd-ace7b7bf0ba1,,,,,,,,,30,2026-03-09,22,,,8,,,,,,,,
001Hr000028ZcZX,"City Of Palmview, TX",Texas,Municipality,Emily Murnane,15884,Open Opportunity,Tier 2,1.0,26.2334,-98.3709,dc611a75-7d4c-47eb-8f5d-36e9fbd81473,Open,Initial Interest,Top of Funnel,Emily Murnane,,2/3/2026,,Yes,,,,,,,,,,,,,,
001Hr000028ZcZh,"City Of Rio Grande City, TX",Texas,Municipality,Blake Anderson,15670,,Tier 2,1.0,26.3798,-98.8203,a01cd403-b25b-4d1c-ace8-dd819e6505e7,,,,,,,,,4,2026-04-20,4,,,,,,,,,,,
001Hr000028Zca2,"City Of Giddings, TX",Texas,Municipality,Emily Murnane,5067,Open Opportunity,Tier 3,0.75,30.1827,-96.9364,4f3c42f4-c907-4ad2-86b4-f34f0068fcaa,Open,Initial Interest,Top of Funnel,Emily Murnane,,9/17/2025,,,7,2026-01-12,7,,,,,,,,,,,
001Hr000028Zcaa,City of Frisco,Texas,Municipality,Blake Anderson,193140,,Tier S,2.0,33.1497,-96.8356,3f9a539e-3c29-43d2-81cf-dc19ba89af4e,,,,,,,,,2,2026-03-09,,,2,,,,,,,,,
001Hr000028Zcaf,"City of Carrollton, TX",Texas,Municipality,Blake Anderson,131388,,Tier S,2.0,32.9756,-96.89,13cd27f6-20b3-4497-9ef1-20340dbb4ef7,,,,,,,,,3,2025-11-06,,,3,,,,,,,,,
001Hr000028Zcak,"City Of Highland Village, TX",Texas,Municipality,Emily Murnane,15952,Open Opportunity,Tier 2,1.0,33.0918,-97.0467,235abf9b-eb60-48e3-b1de-94cb85a9ab57,Open,Initial Interest,Top of Funnel,Emily Murnane,11/12/2025,8/8/2025,,,56,2026-03-11,22,,,31,,,3,,,,,
001Hr000028Zcap,"City Of Wharton, TX",Texas,Municipality,Lucy Nemerov,8589,,Tier 3,0.75,29.3116,-96.1027,2d192ee0-b1c9-4355-b163-4c19a768e8a1,,,,,,,,,4,2026-03-17,,4,,,,,,,,,,
001Hr000028Zcau,"City Of Hempstead, TX",Texas,Municipality,Blake Anderson,6028,,Tier 3,0.75,30.0974,-96.0783,26b76cdb-1aa8-452b-a8d2-ad370d8fbc39,,,,,,,,,8,2026-05-21,5,,,,,3,,,,,,
001Hr000028Zcb9,"City of College Station, TX",Texas,Municipality,Blake Anderson,116276,,Tier S,2.0,30.621,-96.3255,b1a45df6-afb8-4be5-a7bd-afdb8f5a8636,,,,,,,,,5,2025-08-14,,,,5,,,,,,,,
001Hr000028Zcii,"City Of Melissa, TX",Texas,Municipality,Lucy Nemerov,16983,,Tier 2,1.0,33.2859,-96.5728,deb7186e-5b14-4ce8-afb4-6084f451905a,,,,,,,,,24,2026-04-01,23,1,,,,,,,,,,
001Hr000028ZdIF,"City Of Robinson, TX",Texas,Municipality,Lucy Nemerov,12755,Open Opportunity,Tier 2,1.0,31.4677,-97.1147,e801b84d-4571-4e90-9d0d-a39caac026d9,Open,Meeting Booked,Top of Funnel,Alicia Gopal,10/6/2025,10/1/2025,,,14,2025-11-03,,,,,14,,,,,,,
001Hr000028ZdPC,"City Of Bellmead, TX",Texas,Municipality,Blake Anderson,10575,Nurture,Tier 2,1.0,31.599,-97.0894,69bfc848-c44c-4e9d-90b1-bf499de4072b,Closed Lost,,,Troy LeCaire,,1/5/2025,"$45,002",,16,2026-03-27,12,,,4,,,,,,,,
001Hr000028ZdT8,"City Of Terrell, TX",Texas,Municipality,Lucy Nemerov,18567,,Tier 2,1.0,32.736,-96.2753,341660e0-33e5-42c7-8195-537004d171a5,,,,,,,,,20,2026-05-12,,15,,,5,,,,,,,
001Hr000028ZdWJ,"City Of Galveston, TX",Texas,Municipality,Blake Anderson,53219,Open Opportunity,Tier S,2.0,29.3012,-94.795,7b792602-4e48-40ad-92a9-f3b20e73ca35,Open,Initial Interest,Top of Funnel,Granger West,,2/24/2025,,,4,2026-02-17,4,,,,,,,,,,,
001Hr000028ZdYW,"City Of Seagoville, TX",Texas,Municipality,Lucy Nemerov,18805,Open Opportunity,Tier 2,1.0,32.6396,-96.5383,79e8acc5-8d6b-4f8f-bcf3-fd29e9fdf09c,Open,Initial Interest,Top of Funnel,Jason Ginsberg,4/6/2026,4/1/2026,,,13,2026-05-14,,7,,6,,,,,,,,
001Hr000028ZdYb,"City Of Gatesville, TX",Texas,Municipality,Lucy Nemerov,16854,Open Opportunity,Tier 2,1.0,31.4352,-97.7439,2bf69179-23fe-443c-84b9-b38c7accab3e,Open,Initial Interest,Top of Funnel,Leila Assil,,1/9/2025,,,2,2025-07-09,,,,2,,,,,,,,
001Hr000028ZdYz,"City Of Celina, TX",Texas,Municipality,Blake Anderson,23811,Nurture,Tier 2,1.0,33.3249,-96.7862,8509005a-9a09-4e5a-8f25-888162d7fc5b,Closed Lost,,,Troy LeCaire,,1/5/2025,,,3,2026-01-29,,,3,,,,,,,,,
001Hr000028ZdZP,"City Of Watauga, TX",Texas,Municipality,Blake Anderson,23313,,Tier 2,1.0,32.8579,-97.2547,06dbe61c-c6e5-4e7c-b9c4-bd3f884ac3fe,,,,,,,,,17,2026-04-21,3,,,14,,,,,,,,
001Hr000028ZdZY,"City Of White Settlement, TX",Texas,Municipality,Lucy Nemerov,18084,Nurture,Tier 2,1.0,32.7598,-97.4591,4f67999d-2143-45b5-9f77-d69fd6244235,Closed Lost,,,Emily Murnane,10/7/2025,10/2/2025,,,19,2026-04-30,13,6,,,,,,,,,,
001Hr000028ZddV,"Fannin County, TX",Texas,County,Lucy Nemerov,,,Tier 3,0.75,33.5544,-96.1527,aaeffa9e-c7dd-4cc5-8b48-3c2647512085,,,,,,,,,,,,,,,,,,,,,,
001Hr000028Zdib,"Guadalupe County, TX",Texas,County,Lucy Nemerov,195166,Open Opportunity,Tier S,2.0,29.6477,-97.8722,98832e3a-31fc-4431-8468-6b53c13a3571,Open,Initial Interest,Top of Funnel,Lucy Nemerov,,4/20/2026,,,16,2026-05-13,,16,,,,,,,,,,
001Hr000028ZdnV,"Ector County, TX",Texas,County,Shane Lieberman,170022,,Tier S,2.0,31.8246,-102.5298,1d7a7f79-8464-4d4c-a823-64c90f715ca7,,,,,,,,,8,2026-01-29,,,,,8,,,,,,,
001Hr000028Zdvt,"City Of Texas City, TX",Texas,Municipality,Lucy Nemerov,54247,Nurture,Tier S,2.0,29.3838,-94.9027,1c6d709b-a88d-493c-bddb-029d6a353ef3,Closed Lost,,,Troy LeCaire,,1/5/2025,,,9,2026-05-07,,9,,,,,,,,,,
001Hr000028Zdw8,"City Of Lancaster, TX",Texas,Municipality,Lucy Nemerov,40728,Open Opportunity,Tier 1,1.5,32.5921,-96.7561,43747734-4e51-4052-b80c-2b3fb088bce6,Open,Initial Interest,Top of Funnel,Alicia Gopal,11/5/2025,10/30/2025,,,10,2025-11-13,,,,,10,,,,,,,
001Hr000028Ze1x,"City of Pasadena, TX",Texas,Municipality,Blake Anderson,151964,,Tier S,2.0,29.6981,-95.2009,2745314d-1ad3-4347-a8ff-78f9f2ed233f,,,,,,,,,16,2025-12-12,,,16,,,,,,,,,
001Hr000028Zicj,"City Of Haslet, TX",Texas,Municipality,Blake Anderson,2371,Open Opportunity,Tier 3,0.75,32.9748,-97.3478,688c698a-72f9-43cd-a2a3-688751a68fdd,Open,Initial Interest,Top of Funnel,Harrison Peacock,9/12/2024,1/5/2025,,,,,,,,,,,,,,,,
001cv000006fUcz,"City Of Aledo, TX",Texas,Municipality,Emily Murnane,5380,1+ Module Live,Tier 3,0.75,32.696,-97.6022,e74c5335-6127-4496-b9f3-0440d8af0b4f,Closed Won,,,Granger West,3/18/2025,3/17/2025,"$10,000",,,,,,,,,,,,,,,
001cv000006fb8D,"City of Clear Lake Shores, TX",Texas,Municipality,Blake Anderson,1296,,Tier 3,0.75,29.5475,-95.0322,8dc405ca-c920-4b60-bb92-58d0331c6419,,,,,,,,,1,2026-02-26,,,1,,,,,,,,,
001cv000006hXv4,"City Of Early, TX",Texas,Municipality,Blake Anderson,3145,,Tier 3,0.75,31.7421,-98.9456,f0536b69-df50-4245-aa88-3d51598d0d74,,,,,,,,,6,2026-02-23,,,6,,,,,,,,,
001cv000006hemv,"Town Of Crandall, TX",Texas,Municipality,Blake Anderson,4278,Open Opportunity,Tier 3,0.75,32.6279,-96.4558,26779d4e-808b-46b1-ac76-d64fd8933cf0,Open,Initial Interest,Top of Funnel,Leila Assil,,5/27/2025,,,8,2025-11-04,,,1,7,,,,,,,,
001cv000006lOQ7,"City Of Josephine, TX",Texas,Municipality,Lucy Nemerov,4565,,Tier 3,0.75,33.061,-96.3095,3a2329fc-8bc6-4e6b-acd6-cb003da4080a,,,,,,,,,9,2026-03-10,,9,,,,,,,,,,
001cv000006lQF2,"City Of Elmendorf, TX",Texas,Municipality,Blake Anderson,2029,,Tier 3,0.75,29.2562,-98.3331,031da415-45de-468d-b3f3-1a8ff72540fa,,,,,,,,,3,2025-12-08,,,3,,,,,,,,,
001cv000006lVd8,"City of Jamaica Beach, TX",Texas,Municipality,Blake Anderson,1076,Open Opportunity,Tier 3,0.75,29.1897,-94.9796,502d9314-b5cd-4ba9-8610-0be710350ce5,Open,Proposal,Mid Funnel,Jason Ginsberg,4/30/2026,4/23/2026,"$7,500",,1,2025-12-04,,,1,,,,,,,,,
001cv000006lWvY,"City Of Gunter, TX",Texas,Municipality,Lucy Nemerov,2255,,Tier 3,0.75,33.4479,-96.7475,8b798f25-8443-40aa-8cab-8ce3f5a37014,,,,,,,,,1,2025-07-16,,,,,,,1,,,,,
001cv000006mTE9,"City of Kemah, TX",Texas,Municipality,Blake Anderson,2562,,Tier 3,0.75,29.5427,-95.0205,e9259cb5-9a83-4249-b640-d6c75b4ef73a,,,,,,,,,1,2026-02-25,,,1,,,,,,,,,
001cv000006oRhc,"City Of Lavon, TX",Texas,Municipality,Blake Anderson,5342,Open Opportunity,Tier 3,0.75,33.0276,-96.4342,0a072bfc-24ea-42e7-ae57-de022fbed835,Open,Initial Interest,Top of Funnel,Ryan Minter,,4/17/2026,,,6,2026-04-21,,,6,,,,,,,,,
001cv000006pXLQ,"City of Nevada, TX",Texas,Municipality,Blake Anderson,1419,,Tier 3,0.75,33.0423,-96.3739,b362ac03-53c7-4a03-9eb7-7f1e13c01217,,,,,,,,,3,2026-03-02,,,3,,,,,,,,,
001cv000006piGV,"City Of Nassau Bay, TX",Texas,Municipality,Lucy Nemerov,5213,Nurture,Tier 3,0.75,29.5447,-95.091,933eb3f3-2b17-435a-ae92-b2086474476f,Closed Lost,,,Joe del Rosario,2/20/2025,2/11/2025,,,4,2026-05-07,2,,,,,,,,2,,,
001cv000006qwHf,"City Of Pilot Point, TX",Texas,Municipality,Blake Anderson,4651,,Tier 3,0.75,33.3965,-96.9606,440e7a0b-c8ad-4d11-b5db-6f6f202c3684,,,,,,,,,7,2026-02-20,,,7,,,,,,,,,
001cv000006rtr9,"City Of Port Aransas, TX",Texas,Municipality,Lucy Nemerov,3105,,Tier 3,0.75,27.8339,-97.0611,8224ebbf-6bb4-4c84-825b-0247fa88dfc3,,,,,,,,,,,,,,,,,,,,,,
001cv000006s8jr,"City of Stinnett, TX",Texas,Municipality,Blake Anderson,1613,Open Opportunity,Tier 3,0.75,35.827,-101.4429,0fd9cfff-7b15-4ae9-8049-ef4179c39779,Open,Meeting Booked,Top of Funnel,Blake Anderson,5/27/2026,5/11/2026,,,5,2026-05-27,,,,,,5,,,,,,
001cv000006s9hS,"Town Of Tool, TX",Texas,Municipality,Blake Anderson,2212,,Tier 3,0.75,32.2679,-96.1703,49998713-73be-4470-b19b-4943685f1573,,,,,,,,,7,2026-02-03,,,7,,,,,,,,,
001cv000006sEYo,"City Of Sweeny, TX",Texas,Municipality,Blake Anderson,3591,,Tier 3,0.75,29.0389,-95.6986,502fd935-6e7a-4449-b9bc-74917859352e,,,,,,,,,1,2025-12-04,,,1,,,,,,,,,
001cv000006sQfA,"Town Of Venus, TX",Texas,Municipality,Blake Anderson,5727,Nurture,Tier 3,0.75,32.4335,-97.1025,a0770dd5-2f0f-48f8-bcce-c2389e1a6dca,Closed Lost,,,Quinzel Perry,2/20/2025,2/14/2025,,,1,2025-11-20,,,,,1,,,,,,,
001cv000006sWcc,"Town Of Whitesboro, TX",Texas,Municipality,Blake Anderson,4217,,Tier 3,0.75,33.6562,-96.9069,30d8aa89-b53d-4f9d-880d-385dd99b8908,,,,,,,,,1,2026-02-26,,,1,,,,,,,,,
001cv000006sb8n,"City Of Wilmer, TX",Texas,Municipality,Lucy Nemerov,5332,Open Opportunity,Tier 3,0.75,32.5972,-96.6873,3cf7df47-bae8-4166-b4da-793f9b886931,Open,Initial Interest,Top of Funnel,Lucy Nemerov,,3/17/2026,,,7,2026-04-09,,7,,,,,,,,,,
001cv000006svVu,"City Of Fritch, TX",Texas,Municipality,Blake Anderson,1794,,Tier 3,0.75,35.6404,-101.6025,a186a9b8-f515-4e12-8f34-9df7a9e4edaf,,,,,,,,,1,2026-02-25,,,1,,,,,,,,,
001cv000006tfGu,"Town of Fulton, TX",Texas,Municipality,Blake Anderson,1592,,Tier 3,0.75,28.0627,-97.0413,f0d91be0-c7e3-4230-b2ee-db907da3700d,,,,,,,,,,,,,,,,,,,,,,
001cv000006tfNO,"Town Of Pantego, TX",Texas,Municipality,Blake Anderson,2528,,Tier 3,0.75,32.7143,-97.1564,3e755b14-e17a-4aab-8c8a-f6235ae1dec2,,,,,,,,,2,2026-02-25,,,2,,,,,,,,,
001cv000006tiDA,"Town of Westlake, TX",Texas,Municipality,Blake Anderson,1920,Nurture,Tier 3,0.75,32.9912,-97.195,1cf28fe0-3324-4f5c-a2da-275df1159288,Closed Lost,,,Jason Ginsberg,3/26/2026,3/25/2026,,,8,2026-03-25,,,8,,,,,,,,,
001cv00000878ib,"City Of Dripping Springs, TX",Texas,Municipality,Blake Anderson,5787,,Tier 3,0.75,30.1902,-98.0867,d805f6f6-60ed-428e-a5e4-5a9561fca001,,,,,,,,,6,2026-02-20,,,6,,,,,,,,,
001cv000009IkvJ,"City Of Caldwell, TX",Texas,Municipality,Lucy Nemerov,4109,,Tier 3,0.75,30.5313,-96.693,b0648074-c0e7-4b1d-8f2f-8122637a4624,,,,,,,,,11,2026-03-11,,10,,,1,,,,,,,
001cv00000AuVkm,"County Of Harrison, TX",Texas,County,Blake Anderson,69150,,Tier S,2.0,32.5539,-94.3154,d8d928a8-bb32-4038-aaf4-0a50b4dacc3f,,,,,,,,,,,,,,,,,,,,,,
001cv00000AuVkp,"County Of San Patricio, TX",Texas,County,Blake Anderson,69699,,Tier S,2.0,28.0,-97.5247,ab3626a6-0ede-497f-bf18-cce7b32b6157,,,,,,,,,,,,,,,,,,,,,,
001cv00000AuWNk,"City Of Kirbyville, TX",Texas,Municipality,Lucy Nemerov,2003,,Tier 3,0.75,30.6587,-93.894,bc7315c8-267f-47e0-9db7-7de4ecbe2689,,,,,,,,,3,2026-03-30,,3,,,,,,,,,,
001cv00000AuWOM,"City Of Hale Center, TX",Texas,Municipality,Lucy Nemerov,2015,,Tier 3,0.75,34.0642,-101.8438,d4b1dbed-20a6-4ae6-9f10-8d76869ae606,,,,,,,,,,,,,,,,,,,,,,
001cv00000AuWOY,"City Of Rio Hondo, TX",Texas,Municipality,Lucy Nemerov,2018,Open Opportunity,Tier 3,0.75,26.2354,-97.5819,c4764229-9ad5-4463-8e80-3eb9d342c3c6,Open,Sales Qualified,Mid Funnel,Lucy Nemerov,5/4/2026,4/27/2026,,,8,2026-05-15,,6,,,,,,,2,,,
001cv00000AuWOb,"City Of Huntington, TX",Texas,Municipality,Blake Anderson,2019,,Tier 3,0.75,31.2777,-94.5771,6100388a-2e1f-4549-b408-ccc1e3b61b79,,,,,,,,,,,,,,,,,,,,,,
001cv00000AuWPY,"Town Of Whitney, TX",Texas,Municipality,Lucy Nemerov,2033,,Tier 3,0.75,31.9518,-97.3214,ca2610dc-0919-4ee5-ad05-734889dd291b,,,,,,,,,,,,,,,,,,,,,,
001cv00000AuWQ3,"City Of Leonard, TX",Texas,Municipality,Blake Anderson,2039,,Tier 3,0.75,33.3796,-96.2475,1b9b9023-7f74-40a8-ab0e-3f176ccbf6ae,,,,,,,,,1,2025-08-27,,,1,,,,,,,,,
001cv00000AuWQ4,"City Of Troup, TX",Texas,Municipality,Lucy Nemerov,2039,,Tier 3,0.75,32.1446,-95.1205,fcf3a523-8f73-4f6f-9fc7-993ac56aa60a,,,,,,,,,1,2026-02-09,,1,,,,,,,,,,
001cv00000AuWQY,"Town Of Shepherd, TX",Texas,Municipality,Blake Anderson,2045,,Tier 3,0.75,30.4977,-94.9966,8d432859-c255-434e-b73a-dd86793f2324,,,,,,,,,4,2025-12-18,,,,,4,,,,,,,
001cv00000AuWXW,"City Of Memphis, TX",Texas,Municipality,Lucy Nemerov,2055,,Tier 3,0.75,34.7248,-100.534,0f5cf2a6-9e85-40c0-b843-d26ac6bf67d2,,,,,,,,,7,2026-02-25,,7,,,,,,,,,,
001cv00000AuWXm,"Town Of South Padre Island, TX",Texas,Municipality,Blake Anderson,2061,Open Opportunity,Tier 3,0.75,26.1118,-97.1681,160fe31e-0985-4db3-93a2-762a0d5df190,Open,Initial Interest,Top of Funnel,Leila Assil,,9/10/2025,,,30,2025-12-05,14,,,16,,,,,,,,
001cv00000AuWYY,"City Of Weimar, TX",Texas,Municipality,Lucy Nemerov,2074,,Tier 3,0.75,29.7027,-96.7808,d6563080-b12f-4eea-a7e1-2b2af24d75e0,,,,,,,,,,,,,,,,,,,,,,
001cv00000AuWaX,"City Of Jarrell, TX",Texas,Municipality,Lucy Nemerov,2111,,Tier 3,0.75,30.8246,-97.6044,262758a1-e151-4aa0-af05-dcd1b98c599f,,,,,,,,,,,,,,,,,,,,,,
001cv00000AuWat,"City Of Mason, TX",Texas,Municipality,Blake Anderson,2119,Open Opportunity,Tier 3,0.75,30.7488,-99.2306,62222e8f-8ff4-4cbe-a9af-713a031d7a4d,Open,Initial Interest,Top of Funnel,Ryan Minter,,12/3/2025,,,5,2026-01-05,,,5,,,,,,,,,
001cv00000AuWce,"Town Of Idalou, TX",Texas,Municipality,Lucy Nemerov,2152,,Tier 3,0.75,33.6665,-101.6829,854864be-a1d9-4626-b8f3-2ee03f09a739,,,,,,,,,4,2026-02-11,,4,,,,,,,,,,
001cv00000AuWck,"Town Of Shiner, TX",Texas,Municipality,Blake Anderson,2154,,Tier 3,0.75,29.4291,-97.1705,0be0c4be-bd29-47e6-a0b4-1d87bba8df3b,,,,,,,,,,,,,,,,,,,,,,
001cv00000AuWcq,"City Of Arcola, TX",Texas,Municipality,Lucy Nemerov,2156,,Tier 3,0.75,29.4961,-95.4658,6c52a506-e797-48da-a573-95db7e515f59,,,,,,,,,1,2026-03-20,,1,,,,,,,,,,
001cv00000AuWdG,"City Of Olmos Park, TX",Texas,Municipality,Blake Anderson,2162,,Tier 3,0.75,29.4787,-98.4879,04811f4d-8998-4c66-9903-070d8eac7bac,,,,,,,,,,,,,,,,,,,,,,
001cv00000AuWdH,"City Of Kountze, TX",Texas,Municipality,Blake Anderson,2163,,Tier 3,0.75,30.3716,-94.3124,092c1734-04dc-4656-a240-c2958a94bd00,,,,,,,,,2,2025-12-15,2,,,,,,,,,,,
001cv00000AuWpj,"City Of Seagraves, TX",Texas,Municipality,Lucy Nemerov,2185,Open Opportunity,Tier 3,0.75,32.9443,-102.5649,1d6a8d12-2170-404f-bc17-8de1f6f39b7a,Open,Initial Interest,Top of Funnel,Lucy Nemerov,,3/30/2026,,,4,2026-03-16,,4,,,,,,,,,,
001cv00000AuWq9,"City Of George West, TX",Texas,Municipality,Blake Anderson,2192,,Tier 3,0.75,28.3325,-98.1175,5f4fc2aa-595f-44d1-bcc0-98c46483ab5d,,,,,,,,,2,2025-12-08,,,2,,,,,,,,,
001cv00000AuWqD,"County Of Culberson, TX",Texas,County,Lucy Nemerov,2193,,Tier 3,0.75,31.3478,-104.4723,058181d8-2032-426a-89ba-9152e26b3cfc,,,,,,,,,,,,,,,,,,,,,,
001cv00000AuWqw,"City Of Lyford, TX",Texas,Municipality,Lucy Nemerov,2210,Open Opportunity,Tier 3,0.75,26.4123,-97.7897,8b6cd832-7838-40f4-b96a-0baa7f901af5,Open,Sales Qualified,Mid Funnel,Lucy Nemerov,3/11/2026,3/5/2026,,,32,2026-05-26,,28,,,,,,,4,,,
001cv00000AuWrD,"City Of Pinehurst, TX",Texas,Municipality,Blake Anderson,2216,Open Opportunity,Tier 3,0.75,30.1072,-93.7746,91de2c54-7a13-4999-a45c-6612d5488881,Open,Meeting Booked,Top of Funnel,Ryan Minter,9/25/2025,9/17/2025,,,30,2026-04-22,,,30,,,,,,,,,
001cv00000AuWrM,"City Of Malakoff, TX",Texas,Municipality,Lucy Nemerov,2219,Open Opportunity,Tier 3,0.75,32.1696,-96.0125,4011eb20-3227-44e8-b989-7444ee18a093,Open,Initial Interest,Top of Funnel,Lucy Nemerov,2/11/2026,2/9/2026,,,26,2026-05-22,,21,,,5,,,,,,,
001cv00000AuWrz,"Town Of Pelican Bay, TX",Texas,Municipality,Blake Anderson,2236,,Tier 3,0.75,32.921,-97.5184,23e2fda4-e1f0-4d3e-bb4a-6243ef4b0e37,,,,,,,,,,,,,,,,,,,,,,
001cv00000AuX5R,"Town Of Canadian, TX",Texas,Municipality,Lucy Nemerov,2248,Open Opportunity,Tier 3,0.75,35.9128,-100.3821,6cd3e0b1-bcee-43f5-b9fb-11e14f9fe02f,Open,Initial Interest,Top of Funnel,Lucy Nemerov,,3/26/2026,,,12,2026-05-20,,12,,,,,,,,,,
001cv00000AuX5S,"City Of East Bernard, TX",Texas,Municipality,Blake Anderson,2248,Open Opportunity,Tier 3,0.75,29.5311,-96.0711,6079851e-f30e-44ac-a7e8-3285e92f40f2,Open,Proposal,Mid Funnel,Alicia Gopal,12/11/2025,12/8/2025,,,2,2025-12-11,,,,,2,,,,,,,
001cv00000AuX5y,"Town Of St Hedwig, TX",Texas,Municipality,Lucy Nemerov,2258,,Tier 3,0.75,29.4154,-98.2078,addb049b-d47a-46db-b097-81df001185d2,,,,,,,,,13,2026-05-06,,13,,,,,,,,,,
001cv00000AuX6F,"City Of Odem, TX",Texas,Municipality,Lucy Nemerov,2265,,Tier 3,0.75,27.9506,-97.5822,e94186e0-7ce2-4720-a814-cec615bff45c,,,,,,,,,9,2026-05-05,,9,,,,,,,,,,
001cv00000AuX6d,"City Of Quanah, TX",Texas,Municipality,Lucy Nemerov,2272,,Tier 3,0.75,34.2979,-99.7404,f8c8eb73-0944-4db4-a50c-217718a17bf8,,,,,,,,,1,2026-02-11,,1,,,,,,,,,,
001cv00000AuX6j,"City Of Dalworthington Gardens, TX",Texas,Municipality,Lucy Nemerov,2273,,Tier 3,0.75,32.7029,-97.1553,b7b9950b-7651-401f-a78c-8a909032536b,,,,,,,,,,,,,,,,,,,,,,
001cv00000AuX6m,"City Of Overton, TX",Texas,Municipality,Lucy Nemerov,2274,,Tier 3,0.75,32.2746,-94.9786,93455038-5b3c-4c2b-a19c-d245373862c2,,,,,,,,,2,2026-02-23,,2,,,,,,,,,,
001cv00000AuX6u,"City Of Ranger, TX",Texas,Municipality,Blake Anderson,2276,,Tier 3,0.75,32.4699,-98.6789,abbed940-a1f1-4041-9d31-5f664f15026b,,,,,,,,,,,,,,,,,,,,,,
001cv00000AuX7B,"City Of De Leon, TX",Texas,Municipality,Lucy Nemerov,2282,,Tier 3,0.75,32.111,-98.5359,f78ff3ca-2521-4413-890c-99d27ed71fbd,,,,,,,,,8,2026-05-05,,8,,,,,,,,,,
001cv00000AuX7C,"City Of Electra, TX",Texas,Municipality,Lucy Nemerov,2282,,Tier 3,0.75,34.0293,-98.919,7f9123a9-e285-4f85-9d62-ed4e9c492342,,,,,,,,,2,2026-02-10,,2,,,,,,,,,,
001cv00000AuX8z,"City Of Caddo Mills, TX",Texas,Municipality,Lucy Nemerov,2321,,Tier 3,0.75,33.0642,-96.2284,501f353d-2cb9-46c2-9fd8-3a3dbda21ff6,,,,,,,,,9,2026-03-17,,9,,,,,,,,,,
001cv00000AuX90,"City Of Montgomery, TX",Texas,Municipality,Blake Anderson,2321,,Tier 3,0.75,30.3883,-95.6963,038b20d0-1f6d-4d3c-9f00-4980f137cd5f,,,,,,,,,1,2025-12-08,,,,,1,,,,,,,
001cv00000AuX9G,"Village Of Hedwig, TX",Texas,Municipality,Blake Anderson,2328,,Tier 3,0.75,29.7809,-95.5212,1d12c955-6dfe-49e1-86d2-847a3e36fa8a,,,,,,,,,8,2025-10-23,,,8,,,,,,,,,
001cv00000AuX9l,"Town Of Panhandle, TX",Texas,Municipality,Blake Anderson,2337,,Tier 3,0.75,35.3456,-101.3804,079923a6-1cf5-4994-b1d4-b8cdf53865fe,,,,,,,,,,,,,,,,,,,,,,
001cv00000AuXA8,"City Of Anson, TX",Texas,Municipality,Lucy Nemerov,2347,Open Opportunity,Tier 3,0.75,32.7565,-99.8962,0ffac320-f7c4-4c0c-a960-b33efaf45e3c,Open,Initial Interest,Top of Funnel,Lucy Nemerov,,4/17/2026,,,3,2026-04-17,,3,,,,,,,,,,
001cv00000AuXAS,"City Of Nixon, TX",Texas,Municipality,Blake Anderson,2355,,Tier 3,0.75,29.2675,-97.7644,e36aa4c5-7651-44d0-aace-bd3af30a84c6,,,,,,,,,,,,,,,,,,,,,,
001cv00000AuXAW,"City Of Combine, TX",Texas,Municipality,Blake Anderson,2358,,Tier 3,0.75,32.5885,-96.5086,b240f79f-43d4-4f7a-a0f6-56845008caa4,,,,,,,,,,,,,,,,,,,,,,
001cv00000AuXAX,"City Of Blue Mound, TX",Texas,Municipality,Blake Anderson,2359,,Tier 3,0.75,32.8565,-97.3389,8b02f015-aab5-43ec-af4a-617f417dda3e,,,,,,,,,,,,,,,,,,,,,,
001cv00000AuXAm,"City Of Winters, TX",Texas,Municipality,Lucy Nemerov,2365,Open Opportunity,Tier 3,0.75,31.9565,-99.9623,2887e5af-d323-4d64-bc45-743bda10c0be,Open,Initial Interest,Top of Funnel,Lucy Nemerov,2/23/2026,2/13/2026,,,9,2026-03-02,,9,,,,,,,,,,
001cv00000AuXBC,"City Of Trinity, TX",Texas,Municipality,Lucy Nemerov,2377,,Tier 3,0.75,30.9463,-95.3734,0007f2a8-86c9-4ae2-885d-b4768294af4d,,,,,,,,,,,,,,,,,,,,,,
001cv00000AuXN1,"City Of Jonestown, TX",Texas,Municipality,Lucy Nemerov,2456,,Tier 3,0.75,30.4955,-97.9233,810506a5-b4f9-487b-ba45-8e49153979a4,,,,,,,,,31,2026-05-13,,31,,,,,,,,,,
001cv00000AuXN4,"City Of Merkel, TX",Texas,Municipality,Blake Anderson,2457,,Tier 3,0.75,32.4707,-100.0129,2738955d-21b3-43fb-9398-17f24be34830,,,,,,,,,,,,,,,,,,,,,,
001cv00000AuXND,"Town Of Palmer, TX",Texas,Municipality,Lucy Nemerov,2461,,Tier 3,0.75,32.4313,-96.6678,0dc23a1b-8c24-4f94-a014-19b42b62f895,,,,,,,,,4,2026-04-14,,4,,,,,,,,,,
001cv00000AuXNG,"City Of Sonora, TX",Texas,Municipality,Blake Anderson,2462,,Tier 3,0.75,30.5668,-100.6434,04c01cff-5dac-4ca3-97c3-a3aedd33808c,,,,,,,,,,,,,,,,,,,,,,
001cv00000AuXNT,"City Of Troy, TX",Texas,Municipality,Emily Murnane,3427,,Tier 3,0.75,31.2068,-97.3028,a19c4d37-411c-4f22-a700-d05756ac9cf3,,,,,,,,,18,2026-02-18,15,,,3,,,,,,,,
001cv00000AuXNe,"Town Of Freer, TX",Texas,Municipality,Lucy Nemerov,2472,,Tier 3,0.75,27.8828,-98.6178,58d4109e-f41d-4603-b808-2c37d1d2efca,,,,,,,,,,,,,,,,,,,,,,
001cv00000AuXNv,"Town Of Mount Vernon, TX",Texas,Municipality,Lucy Nemerov,2477,,Tier 3,0.75,33.1887,-95.2213,148b4200-aba6-4bff-ab41-79f44e703035,,,,,,,,,1,2026-04-29,,1,,,,,,,,,,
001cv00000AuXNz,"City Of Hudson Oaks, TX",Texas,Municipality,Lucy Nemerov,2478,,Tier 3,0.75,32.7588,-97.7071,e787ee55-742e-42aa-9839-9c3ced2fc99b,,,,,,,,,1,2026-02-11,,1,,,,,,,,,,
001cv00000AuXOl,"City Of Junction, TX",Texas,Municipality,Blake Anderson,2494,,Tier 3,0.75,30.4894,-99.772,79119440-31cd-4a62-a49b-653f85c0d88b,,,,,,,,,,,,,,,,,,,,,,
001cv00000AuXPA,"City Of El Cenizo, TX",Texas,Municipality,Blake Anderson,2506,,Tier 3,0.75,27.3322,-99.5037,50e0226c-9d3f-49e3-a3b2-4f130b501971,,,,,,,,,,,,,,,,,,,,,,
001cv00000AuXPI,"City Of Daingerfield, TX",Texas,Municipality,Lucy Nemerov,2510,,Tier 3,0.75,33.0318,-94.7219,bda06674-49b0-4ae1-9b11-b2513490eefc,,,,,,,,,4,2026-03-16,,4,,,,,,,,,,
001cv00000AuXPV,"City Of Hooks, TX",Texas,Municipality,Blake Anderson,2514,,Tier 3,0.75,33.4662,-94.2885,9bae00ef-7bba-4b97-b0d2-1d84916385b4,,,,,,,,,,,,,,,,,,,,,,
001cv00000AuXPY,"County Of Cochran, TX",Texas,County,Lucy Nemerov,2516,,Tier 3,0.75,33.5644,-102.8975,d9cf2a66-7073-4e0a-895f-887a1c3bbb1d,,,,,,,,,,,,,,,,,,,,,,
001cv00000AuXTj,"Village Of The Hills, TX",Texas,Municipality,Lucy Nemerov,2535,,Tier 3,0.75,30.348,-97.985,0fb17b07-1240-4909-9c83-a7bd9b051fa9,,,,,,,,,,,,,,,,,,,,,,
001cv00000AuXU4,"Village Of Panorama, TX",Texas,Municipality,Lucy Nemerov,2547,Nurture,Tier 3,0.75,30.381,-95.4936,7b5d8472-6fa3-40e9-ae77-2b54e3938390,Closed Lost,,,Andy Blakely,8/4/2025,8/4/2025,,,,,,,,,,,,,,,,
001cv00000AuXUR,"City Of West, TX",Texas,Municipality,Blake Anderson,2557,,Tier 3,0.75,31.8023,-97.091,67079fc3-c339-451a-81b1-9f2f0e93d29f,,,,,,,,,,,,,,,,,,,,,,
001cv00000AuXUu,"City Of Escobares, TX",Texas,Municipality,Blake Anderson,2569,,Tier 3,0.75,26.4106,-98.9625,a0d6a613-24c1-4eba-b29b-d3194a9205eb,,,,,,,,,,,,,,,,,,,,,,
001cv00000AuXVY,"City Of Seymour, TX",Texas,Municipality,Blake Anderson,2584,Open Opportunity,Tier 3,0.75,33.5943,-99.2604,05e327ba-6fc1-4d18-84df-6c7f5466e38e,Open,Sales Qualified,Mid Funnel,Blake Anderson,5/22/2026,5/6/2026,,,3,2026-05-22,,,,,,3,,,,,,
001cv00000AuXWE,"City Of Palmhurst, TX",Texas,Municipality,Lucy Nemerov,2602,,Tier 3,0.75,26.2584,-98.3181,82a96507-56d7-4e30-9f42-09acc52d3ee1,,,,,,,,,,,,,,,,,,,,,,
001cv00000AuXWF,"Village Of Westworth Village, TX",Texas,Municipality,Lucy Nemerov,2602,,Tier 3,0.75,32.7605,-97.4246,42a4e8ee-c0b8-4ce5-9658-6a5c49f04d44,,,,,,,,,8,2026-04-30,,8,,,,,,,,,,
001cv00000AuXfE,"Town Of Talty, TX",Texas,Municipality,Lucy Nemerov,2710,,Tier 3,0.75,32.6832,-96.3855,2bddc755-c780-49a0-b4c1-364ede04792e,,,,,,,,,18,2026-05-08,,18,,,,,,,,,,
001cv00000AuXfH,"City Of La Villa, TX",Texas,Municipality,Lucy Nemerov,2712,,Tier 3,0.75,26.2987,-97.9286,01442966-f677-4d83-b809-912e1abeb3f6,,,,,,,,,,,,,,,,,,,,,,
001cv00000AuXfY,"City Of Edcouch, TX",Texas,Municipality,Blake Anderson,2720,,Tier 3,0.75,26.294,-97.9606,301fd2a1-301a-409b-af14-d49f2f6468bb,,,,,,,,,,,,,,,,,,,,,,
001cv00000AuXff,"City Of Balcones Heights, TX",Texas,Municipality,Blake Anderson,2725,Nurture,Tier 3,0.75,29.4893,-98.5506,1be8957b-d47d-4ae2-9d55-be7e03ab2caa,Closed Lost,,,Andy Blakely,9/5/2025,9/3/2025,,,,,,,,,,,,,,,,
001cv00000AuXg8,"City Of Hallettsville, TX",Texas,Municipality,Lucy Nemerov,2742,,Tier 3,0.75,29.4439,-96.9411,8af584f7-4cdc-42df-9d25-6491fc1276ff,,,,,,,,,,,,,,,,,,,,,,
001cv00000AuXgE,"City Of Van, TX",Texas,Municipality,Lucy Nemerov,2745,,Tier 3,0.75,32.5249,-95.6372,00301e8e-ae64-462f-b9a5-6c221f46d7c8,,,,,,,,,6,2026-05-21,,6,,,,,,,,,,
001cv00000AuXhA,"Village Of Vinton, TX",Texas,Municipality,Lucy Nemerov,2769,,Tier 3,0.75,31.9512,-106.6025,ccc16da8-4d24-43c2-a61b-58f7932f31fb,,,,,,,,,11,2026-05-15,,11,,,,,,,,,,
001cv00000AuXiH,"City Of Clarksville, TX",Texas,Municipality,Lucy Nemerov,2790,,Tier 3,0.75,32.5296,-94.903,8a85c70b-fe32-4c72-8c3a-bc535ea550d1,,,,,,,,,2,2026-04-29,,2,,,,,,,,,,
001cv00000AuXiI,"Town Of Refugio, TX",Texas,Municipality,Blake Anderson,2790,,Tier 3,0.75,28.3053,-97.2753,a2c8f897-8326-4152-a117-292714bd16f9,,,,,,,,,,,,,,,,,,,,,,
001cv00000AuXiZ,"Town Of Waller, TX",Texas,Municipality,Lucy Nemerov,2796,,Tier 3,0.75,30.0566,-95.9269,f831b540-f1f8-4c3d-907b-59716b15a82d,,,,,,,,,2,2026-03-26,,2,,,,,,,,,,
001cv00000AuXie,"County Of Sherman, TX",Texas,County,Lucy Nemerov,2798,,Tier 3,0.75,36.2643,-101.9805,6b53072c-ab52-47ab-be9f-2604c2b79e2c,,,,,,,,,,,,,,,,,,,,,,
