Account ID,Account Name,State,Entity Type,Owner,Population,Account Status,Tier,SQO Points,Lat,Lng,Starbridge Buyer ID,Opp Status,Stage,Funnel Position,Sourced By,Discovery Call Date,Created Date,ARR,Previously Lost,Total Calls,Last Call Date,Calls - Emily Murnane,Calls - Leila Assil,Calls - Mihir Shah,Calls - Joe del Rosario,Calls - Sydney Ireland,Calls - Ali Cohen,Calls - Ryan Minter,Calls - Jenny Allison,Calls - Quinzel Perry
001Hr000028Zbnz,"City Of Alliance, OH",Ohio,Municipality,Ali Cohen,21801,Nurture,Tier 2,1.0,40.9153,-81.1059,073b8f3a-f460-4f65-9376-fc1bf2f229dd,Closed Lost,,,Joe del Rosario,10/3/2024,1/5/2025,"$30,000",,4,2026-04-09,3,,,1,,,,,
001Hr000028Zbo1,"County of Richland, OH",Ohio,County,Mihir Shah,125064,Open Opportunity,Tier S,2.0,40.7567,-82.5186,83fdd52a-ed61-44af-8530-c4ca0aac4544,Open,Proposal,Mid Funnel,Leila Assil,7/21/2025,7/15/2025,"$78,000",,15,2025-07-15,,15,,,,,,,
001Hr000028Zbsr,"Township of Deerfield, OH",Ohio,Municipality,Mihir Shah,40173,Open Opportunity,Tier 1,1.5,39.3108,-84.2963,b4825701-8a6f-4e94-8cf2-7fe1ee694a3a,Closed Lost,,,Asher Rosenfeld,,1/5/2025,,,2,2025-07-16,,2,,,,,,,
001Hr000028ZbvV,"City Of Fairlawn, OH",Ohio,Municipality,Mihir Shah,7688,,Tier 3,0.75,41.1278,-81.6098,6242785d-19f8-44dc-826b-cfa34e2ab915,,,,,,,,,3,2026-05-18,1,1,1,,,,,,
001Hr000028ZbvW,"City Of Athens, OH",Ohio,Municipality,Ali Cohen,24311,,Tier 2,1.0,39.3292,-82.1013,7750995d-3a37-4916-832b-01799a12bcf0,,,,,,,,,12,2025-12-22,11,,,1,,,,,
001Hr000028Zc6i,"City Of Fairfield, OH",Ohio,Municipality,Mihir Shah,44562,,Tier 1,1.5,39.3455,-84.5603,50c1b960-6ea7-4c4e-a811-3fed89f17ccb,,,,,,,,,2,2025-12-17,1,,,1,,,,,
001Hr000028Zc7G,"Township Of Union, OH",Ohio,Municipality,Ali Cohen,8296,,Tier 3,0.75,40.4349,-82.2366,69ba9231-ca9e-499b-81d2-81bc55346c30,,,,,,,,,,,,,,,,,,,
001Hr000028Zc7z,"Township Of Copley, OH",Ohio,Municipality,Mihir Shah,18307,Nurture,Tier 2,1.0,41.0875,-81.6364,dddcc823-197b-4405-9f5d-e38cd061c93f,Closed Lost,,,Asher Rosenfeld,,1/5/2025,,,30,2026-05-19,27,,3,,,,,,
001Hr000028Zc9E,"Village Of Carlisle, OH",Ohio,Municipality,Ali Cohen,5569,Nurture,Tier 3,0.75,39.5821,-84.3198,e807dbfc-4d5b-41db-9aae-e4955247acb7,Closed Lost,,,Emily Murnane,1/21/2026,12/31/2025,,,5,2026-01-21,4,,,,,,,1,
001Hr000028Zc9T,"Delhi Township, OH",Ohio,Municipality,Mihir Shah,28841,,Tier 1,1.5,39.104,-84.6172,e0f75452-5d26-48d0-9443-92102129871c,,,,,,,,,1,2025-08-14,,,,1,,,,,
001Hr000028ZcAZ,"Township Of Jackson, OH",Ohio,Municipality,Mihir Shah,43029,,Tier 1,1.5,40.8665,-81.4938,d3451adf-13b8-4b24-b787-32787965a06d,,,,,,,,,,,,,,,,,,,
001Hr000028ZcAa,"Jackson Township (Franklin County), OH",Ohio,Municipality,Mihir Shah,46340,,Tier 1,1.5,39.8822,-83.0936,f78a00df-5979-4495-8288-738efc58c29f,,,,,,,,,12,2025-09-30,12,,,,,,,,
001Hr000028ZcDA,"City Of Loveland, OH",Ohio,Municipality,Mihir Shah,13191,Nurture,Tier 2,1.0,39.2689,-84.2638,2ad4a97f-6dbc-4248-9234-fff0ccdcac52,Closed Lost,,,Granger West,11/1/2024,1/5/2025,,,6,2026-04-06,6,,,,,,,,
001Hr000028ZcI3,"Township Of Pleasant, OH",Ohio,Municipality,Mihir Shah,8080,,Tier 3,0.75,39.8429,-83.1863,7d244860-5c26-4cdf-8ee2-7d90f876e133,,,,,,,,,2,2026-05-08,,,2,,,,,,
001Hr000028ZcIT,"Township Of Plain, OH",Ohio,Municipality,Ali Cohen,12734,,Tier 2,1.0,40.8877,-81.3729,41bc1bcc-473a-4446-ac97-5c28374fa8d8,,,,,,,,,,,,,,,,,,,
001Hr000028ZcKK,"City Of Bucyrus, OH",Ohio,Municipality,Ali Cohen,11625,Nurture,Tier 2,1.0,40.8084,-82.9755,f44a7653-c061-4378-b9ae-bde82c1d6e31,Closed Lost,,,Joe del Rosario,9/17/2024,1/5/2025,,,2,2025-10-09,2,,,,,,,,
001Hr000028ZcKL,"Township Of Goshen, OH",Ohio,Municipality,Mihir Shah,16192,,Tier 2,1.0,39.2369,-84.1646,2da2d19a-6009-4872-b265-14f35ecf0689,,,,,,,,,,,,,,,,,,,
001Hr000028ZcN9,"Township Of Monclova, OH",Ohio,Municipality,Mihir Shah,14876,,Tier 2,1.0,41.5587,-83.733,d516ea03-8297-4c63-a5ec-1b0f1acfaa10,,,,,,,,,,,,,,,,,,,
001Hr000028ZcPg,"Township Of Ashtabula, OH",Ohio,Municipality,Mihir Shah,19561,,Tier 2,1.0,41.8651,-80.7898,24213483-9513-4c73-8097-72e1ff798583,,,,,,,,,,,,,,,,,,,
001Hr000028ZcST,"Township Of Shalersville, OH",Ohio,Municipality,Mihir Shah,5254,,Tier 3,0.75,41.2389,-81.2312,247723c9-6cec-4b51-8350-6ddb5dd253f2,,,,,,,,,,,,,,,,,,,
001Hr000028ZcSV,"City Of Madeira, OH",Ohio,Municipality,Ali Cohen,9444,,Tier 3,0.75,39.1909,-84.3636,e6241872-a168-497a-ab2e-a4585a15678f,,,,,,,,,2,2026-04-20,2,,,,,,,,
001Hr000028ZcTH,"Township Of Clinton, OH",Ohio,Municipality,Mihir Shah,20161,,Tier 2,1.0,41.5531,-84.1646,6762806d-7747-4c71-a5f6-de1e5b14266b,,,,,,,,,1,2025-09-25,1,,,,,,,,
001Hr000028ZcXB,"City Of Wyoming, OH",Ohio,Municipality,Ali Cohen,8692,,Tier 3,0.75,39.2312,-84.4658,ba8848ac-bfb8-4242-b25c-ab17e1fc1235,,,,,,,,,5,2026-02-18,3,2,,,,,,,
001Hr000028ZccJ,"Township Of Saybrook, OH",Ohio,Municipality,Mihir Shah,9704,,Tier 3,0.75,41.8276,-80.8718,48a9f3e7-911e-4f8c-b4d3-d63df0b9eebc,,,,,,,,,5,2025-07-31,,5,,,,,,,
001Hr000028ZccL,"City Of Barberton, OH",Ohio,Municipality,Ali Cohen,24983,,Tier 2,1.0,41.0128,-81.6051,484c8abc-b644-4d1e-8c62-5d5a2af9a154,,,,,,,,,14,2026-04-13,14,,,,,,,,
001Hr000028Zcdx,"City Of Jackson, OH",Ohio,Municipality,Mihir Shah,6209,,Tier 3,0.75,39.052,-82.6366,a44fdddd-beb8-4976-983a-1cef6a8ef71d,,,,,,,,,4,2025-07-16,,4,,,,,,,
001Hr000028ZchZ,"Township Of Tate, OH",Ohio,Municipality,Ali Cohen,9223,Nurture,Tier 3,0.75,38.9421,-84.0802,8eb4170b-f154-4aa7-8ff0-2fe1d21042af,Closed Lost,,,Leila Assil,8/6/2025,7/31/2025,"$8,500",,3,2025-08-06,,3,,,,,,,
001Hr000028ZcjH,"City Of Highland Heights, OH",Ohio,Municipality,Mihir Shah,8612,,Tier 3,0.75,41.552,-81.4785,fa74918b-adff-4274-8602-8d9c38daea7c,,,,,,,,,2,2025-07-31,,2,,,,,,,
001Hr000028Zcjk,"Township Of Union, OH",Ohio,Municipality,Ali Cohen,12504,,Tier 2,1.0,40.4349,-82.2366,16e5ffe3-6ecb-41a0-a8a4-6e291103e47f,,,,,,,,,,,,,,,,,,,
001Hr000028Zcjl,"City Of Garfield Heights, OH",Ohio,Municipality,Ali Cohen,29369,,Tier 1,1.5,41.417,-81.606,e3eea659-0bc4-4b60-bfa3-ee4563b95f07,,,,,,,,,10,2026-04-23,10,,,,,,,,
001Hr000028ZclH,"Township Of Swan Creek, OH",Ohio,Municipality,Mihir Shah,8517,,Tier 3,0.75,38.594,-82.2021,58be08a3-d905-457d-86e6-4a326b47a2d7,,,,,,,,,,,,,,,,,,,
001Hr000028Zclg,"City Of Munroe Falls, OH",Ohio,Municipality,Ali Cohen,5023,,Tier 3,0.75,41.1445,-81.4398,7107410f-69ae-4271-b6cf-4716cce98152,,,,,,,,,11,2025-10-08,11,,,,,,,,
001Hr000028Zclq,"Washington Township (Franklin County), OH",Ohio,Municipality,Ali Cohen,42997,,Tier 1,1.5,40.0916,-83.1997,0a86b874-daa1-498e-ab99-e1f98905ec28,,,,,,,,,2,2025-09-16,2,,,,,,,,
001Hr000028Zcn8,"Township Of Brimfield, OH",Ohio,Municipality,Ali Cohen,11417,,Tier 2,1.0,41.1,-81.3462,6ac5af65-915a-41a1-887f-15090b80b181,,,,,,,,,9,2025-11-21,9,,,,,,,,
001Hr000028Zcn9,"Township Of Pierce, OH",Ohio,Municipality,Mihir Shah,15199,,Tier 2,1.0,39.0238,-84.2595,c46dfb86-6c83-4ca4-94a9-ed9390f65cc8,,,,,,,,,4,2025-07-09,,,,4,,,,,
001Hr000028Zco7,"City Of Uhrichsville, OH",Ohio,Municipality,Mihir Shah,5217,,Tier 3,0.75,40.3931,-81.3465,c1e06b19-8d35-4be3-a00d-5e13eabdd590,,,,,,,,,7,2026-04-10,7,,,,,,,,
001Hr000028Zcp0,"City Of Upper Sandusky, OH",Ohio,Municipality,Mihir Shah,6619,Nurture,Tier 3,0.75,40.8273,-83.2813,345b7ef3-cc6a-4411-86c0-e33e94cebbb1,Closed Lost,,,Emily Murnane,8/29/2025,8/27/2025,"$10,000",,3,2026-05-14,,,3,,,,,,
001Hr000028Zcpt,"Trumbull County, OH",Ohio,County,Mihir Shah,200373,Nurture,Tier S,2.0,41.3065,-80.7214,a068c68f-f7e7-4e39-ae17-4a68fa84fecf,Closed Lost,,,Leila Assil,6/16/2025,4/30/2025,,,7,2026-05-13,2,3,2,,,,,,
001Hr000028Zcqr,"Township Of Athens, OH",Ohio,Municipality,Mihir Shah,30484,,Tier 1,1.5,39.3292,-82.1013,86a7d9ae-e0e2-4f11-99d9-4e574f547b32,,,,,,,,,,,,,,,,,,,
001Hr000028Zcrk,"Township Of Bethlehem, OH",Ohio,Municipality,Mihir Shah,5502,,Tier 3,0.75,40.8387,-82.7199,85115338-1f31-45f7-945a-4d01cb9767f6,,,,,,,,,,,,,,,,,,,
001Hr000028Zcsw,"Township Of Granville, OH",Ohio,Municipality,Mihir Shah,10069,,Tier 2,1.0,40.0892,-82.5402,9a7e9cf9-cb08-44a2-a086-157041c8ba5b,,,,,,,,,9,2025-08-26,,9,,,,,,,
001Hr000028ZctR,"City Of New Philadelphia, OH",Ohio,Municipality,Ali Cohen,17585,Open Opportunity,Tier 2,1.0,40.4898,-81.4457,bc3ba330-cc38-4a24-a6cd-1bf70a69c543,Open,Initial Interest,Top of Funnel,Emily Murnane,,4/1/2026,,,2,2026-04-01,2,,,,,,,,
001Hr000028Zcu4,"Township Of Liberty, OH",Ohio,Municipality,Ali Cohen,21461,Nurture,Tier 2,1.0,39.4015,-84.4094,84f5d2d6-dfc2-4a04-9c7d-21eaf8f61201,Closed Lost,,,Emily Murnane,11/19/2025,1/5/2025,,,6,2025-12-01,5,1,,,,,,,
001Hr000028ZcuZ,"Township Of Richfield, OH",Ohio,Municipality,Ali Cohen,6406,,Tier 3,0.75,41.2366,-81.6254,4b244753-b858-4827-a8bd-938aa9c11d6f,,,,,,,,,,,,,,,,,,,
001Hr000028Zcux,"City Of Vandalia, OH",Ohio,Municipality,Ali Cohen,15090,,Tier 2,1.0,39.8906,-84.1988,affbcee2-d115-408d-bac2-ba3f9d98d6cf,,,,,,,,,8,2026-04-23,7,,,,,,1,,
001Hr000028ZcvG,"City Of Canfield, OH",Ohio,Municipality,Mihir Shah,7588,Open Opportunity,Tier 3,0.75,41.0251,-80.7609,e9307cb8-8eee-4492-b4ef-8e78eaddd70c,Closed Lost,,,Leila Assil,7/17/2025,7/10/2025,,,1,2025-07-10,,1,,,,,,,
001Hr000028Zcwn,"City Of Eastlake, OH",Ohio,Municipality,Ali Cohen,17499,,Tier 2,1.0,41.6539,-81.4504,36fe1650-638c-425d-a501-247cf55523d7,,,,,,,,,1,2026-01-30,1,,,,,,,,
001Hr000028Zcwp,"Pleasant Township (Van Wert County), OH",Ohio,Municipality,Mihir Shah,10838,,Tier 2,1.0,40.854,-84.627,b98d394b-537a-4013-b0aa-91e9c1725b35,,,,,,,,,,,,,,,,,,,
001Hr000028Zcxl,"City Of Findlay, OH",Ohio,Municipality,Ali Cohen,39942,,Tier 1,1.5,41.0391,-83.6502,1d73f31d-0580-486e-b66d-fbde45df0c5a,,,,,,,,,9,2025-12-02,4,,,5,,,,,
001Hr000028ZczD,"City Of Canal Fulton, OH",Ohio,Municipality,Mihir Shah,5323,,Tier 3,0.75,40.8898,-81.5976,cb7ad399-9832-41f4-bd6e-80d234c816ac,,,,,,,,,7,2026-04-02,4,,,3,,,,,
001Hr000028ZczM,"Township Of Newton, OH",Ohio,Municipality,Mihir Shah,8582,,Tier 3,0.75,40.0704,-84.3752,48412b08-7295-45de-9af4-21c585549e96,,,,,,,,,,,,,,,,,,,
001Hr000028ZczO,"City Of Tiffin, OH",Ohio,Municipality,Mihir Shah,17841,Nurture,Tier 2,1.0,41.1145,-83.178,09a96b37-42b9-4148-8b78-acbb60ae6267,Closed Lost,,,Emily Murnane,3/3/2026,2/20/2026,,,6,2026-02-20,4,,,,,,2,,
001Hr000028Zczr,"City Of Sheffield Lake, OH",Ohio,Municipality,Mihir Shah,8973,,Tier 3,0.75,41.4875,-82.1015,038f06bb-b3ce-4f10-b62a-36a5f5a73a4a,,,,,,,,,,,,,,,,,,,
001Hr000028Zczw,"City Of Kenton, OH",Ohio,Municipality,Mihir Shah,7951,,Tier 3,0.75,40.647,-83.6097,7571bad1-1fdf-4c85-865c-d09e60516ac5,,,,,,,,,12,2026-01-08,2,10,,,,,,,
001Hr000028Zczy,"City Of Maumee, OH",Ohio,Municipality,Mihir Shah,13810,,Tier 2,1.0,41.5628,-83.6538,bf5f3b6b-573f-4366-9cef-849f8d7c93de,,,,,,,,,54,2026-05-19,41,,13,,,,,,
001Hr000028Zd0h,"Township Of Lafayette, OH",Ohio,Municipality,Mihir Shah,6097,,Tier 3,0.75,40.7603,-83.9486,3e07708e-e758-410d-a8ac-47ddd2f144df,,,,,,,,,10,2026-02-23,7,3,,,,,,,
001Hr000028Zd1F,"City Of Bedford, OH",Ohio,Municipality,Ali Cohen,12935,,Tier 2,1.0,41.3931,-81.5365,9ee9671b-d185-43ab-980a-31dbc7d93a34,,,,,,,,,1,2025-07-30,,,,,,,1,,
001Hr000028Zd1c,"Village Of Granville, OH",Ohio,Municipality,Mihir Shah,5709,,Tier 3,0.75,40.0681,-82.5196,b639866f-2ad9-42c6-959d-d7374e8398d8,,,,,,,,,3,2026-03-03,2,1,,,,,,,
001Hr000028Zd1d,"City Of Clyde, OH",Ohio,Municipality,Mihir Shah,6321,Implementation,Tier 3,0.75,41.3042,-82.9752,1d4afa25-3e4d-4d66-bda3-60b4aebd4c1e,Closed Won,,,Emily Murnane,1/22/2026,10/31/2025,"$18,000",,13,2025-12-01,12,1,,,,,,,
001Hr000028Zd21,"City Of Lebanon, OH",Ohio,Municipality,Mihir Shah,21191,,Tier 2,1.0,39.4353,-84.203,7e681d0b-3257-4c57-8e68-69188f64265f,,,,,,,,,2,2025-12-11,2,,,,,,,,
001Hr000028Zd2v,"Township Of Brookfield, OH",Ohio,Municipality,Mihir Shah,8428,,Tier 3,0.75,41.2406,-80.5579,f971f86a-4946-402b-aa54-247433540e7a,,,,,,,,,,,,,,,,,,,
001Hr000028Zd3B,"Township Of Blendon, OH",Ohio,Municipality,Mihir Shah,10024,Open Opportunity,Tier 2,1.0,40.115,-82.8694,b7b600da-1ce1-41a5-a496-005f4a1a9848,Open,Meeting Booked,Top of Funnel,Ali Cohen,6/9/2026,3/11/2026,,,4,2026-03-02,,,,,,4,,,
001Hr000028Zd3f,"Chester Township, OH",Ohio,Municipality,Ali Cohen,10044,,Tier 2,1.0,41.5354,-81.3619,29c889ae-5cca-4843-b1cf-0db7cf7a247b,,,,,,,,,,,,,,,,,,,
001Hr000028Zd4i,"City Of Shelby, OH",Ohio,Municipality,Mihir Shah,9286,,Tier 3,0.75,40.8814,-82.6618,a9c2d87c-c4cf-445f-a35a-5a61330bc9f9,,,,,,,,,1,2025-08-04,,1,,,,,,,
001Hr000028Zd53,"Township Of Suffield, OH",Ohio,Municipality,Mihir Shah,6015,,Tier 3,0.75,41.0233,-81.3474,35ff9bdf-e837-418e-bd57-419143975cc9,,,,,,,,,2,2026-05-08,,,2,,,,,,
001Hr000028Zd5G,"City Of Kettering, OH",Ohio,Municipality,Ali Cohen,57377,Open Opportunity,Tier S,2.0,39.6895,-84.1688,133feb81-d32a-4dbd-8174-5ace88a94d39,Open,Proposal,Mid Funnel,Emily Murnane,3/16/2026,3/4/2026,"$72,500",,22,2026-03-04,14,8,,,,,,,
001Hr000028Zd5X,"Township Of Newbury, OH",Ohio,Municipality,Mihir Shah,5244,,Tier 3,0.75,41.4634,-81.2443,39c21b93-4b5a-4935-8203-04128b461b53,,,,,,,,,9,2025-07-11,,9,,,,,,,
001Hr000028Zd5f,"City Of Englewood, OH",Ohio,Municipality,Mihir Shah,13396,,Tier 2,1.0,39.8776,-84.3022,e36d4a3b-84bd-4952-842d-5cd1f3b6fca5,,,,,,,,,2,2026-04-02,2,,,,,,,,
001Hr000028Zd5h,"City Of North Royalton, OH",Ohio,Municipality,Mihir Shah,30965,All Modules Live,Tier 1,1.5,41.3137,-81.7246,052d766a-435b-4a2e-98a6-432ce4f7b806,Closed Won,,,Asher Rosenfeld,9/13/2024,1/5/2025,"$39,000",,,,,,,,,,,,
001Hr000028Zd5w,"Township Of Upper, OH",Ohio,Municipality,Ali Cohen,14250,,Tier 2,1.0,38.5366,-82.6835,219b68d2-2408-4bc2-92f5-051bf31661cb,,,,,,,,,1,2025-05-27,,,,1,,,,,
001Hr000028Zd61,"Village Of South Lebanon, OH",Ohio,Municipality,Ali Cohen,6541,Open Opportunity,Tier 3,0.75,39.3709,-84.2133,e3f7e760-5efa-4419-8453-56ea70d6d947,Open,Initial Interest,Top of Funnel,Leila Assil,,6/10/2025,,,17,2026-01-29,15,2,,,,,,,
001Hr000028Zd6A,"City Of Northwood, OH",Ohio,Municipality,Mihir Shah,5179,,Tier 3,0.75,41.6073,-83.4688,5223e600-059c-437e-8e21-75acdf9d7630,,,,,,,,,,,,,,,,,,,
001Hr000028Zd76,"Township Of Pleasant, OH",Ohio,Municipality,Mihir Shah,6229,,Tier 3,0.75,39.8429,-83.1863,fa0b7f3e-8f98-4721-b047-f1a92bbe2914,,,,,,,,,9,2025-08-14,,9,,,,,,,
001Hr000028Zd7H,"Township Of Berne, OH",Ohio,Municipality,Mihir Shah,5105,,Tier 3,0.75,39.639,-82.5402,135f05d1-bc5a-4765-92cc-914a324fc280,,,,,,,,,,,,,,,,,,,
001Hr000028Zd7J,"City Of Struthers, OH",Ohio,Municipality,Mihir Shah,9917,,Tier 3,0.75,41.0526,-80.6079,56012c55-e62e-4e81-89ba-b4b8aaccfd93,,,,,,,,,9,2026-01-05,1,8,,,,,,,
001Hr000028Zd7i,"Township Of Perkins, OH",Ohio,Municipality,Mihir Shah,12175,,Tier 2,1.0,41.3906,-82.7131,2e57cd9e-b352-4131-9f85-2ee509d6324c,,,,,,,,,2,2026-01-12,2,,,,,,,,
001Hr000028Zd8E,"Township Of Paris, OH",Ohio,Municipality,Mihir Shah,27854,,Tier 1,1.5,40.7976,-81.1648,c19ff30e-4245-41a9-911b-2faead98ad95,,,,,,,,,4,2025-12-30,4,,,,,,,,
001Hr000028Zd8M,"City Of North Canton, OH",Ohio,Municipality,Mihir Shah,17891,,Tier 2,1.0,40.9094,-81.3949,1985bffb-9c44-496a-899f-554f9d2c6307,,,,,,,,,4,2025-10-08,2,,,2,,,,,
001Hr000028Zd8k,"City Of Clayton, OH",Ohio,Municipality,Ali Cohen,13249,,Tier 2,1.0,39.8631,-84.3605,dd693a50-0204-4f00-b589-e417e277b7a2,,,,,,,,,16,2026-04-20,16,,,,,,,,
001Hr000028Zd8z,"City Of Beachwood, OH",Ohio,Municipality,Mihir Shah,13928,,Tier 2,1.0,41.4645,-81.5087,2633469d-405f-41be-80eb-6a0ea4c1c8cc,,,,,,,,,6,2026-02-19,1,,,5,,,,,
001Hr000028Zd99,"Township Of La Grange, OH",Ohio,Municipality,Mihir Shah,6810,,Tier 3,0.75,41.2373,-82.1199,62fc2948-88ac-4a9c-a719-c871c408ad91,,,,,,,,,1,2026-02-10,,,,,1,,,,
001Hr000028Zd9A,"Township Of Munson, OH",Ohio,Municipality,Mihir Shah,6961,,Tier 3,0.75,41.5254,-81.2299,ec5b20d9-ab1c-44ec-abdd-165a0a5dc617,,,,,,,,,1,2026-05-06,,,1,,,,,,
001Hr000028Zd9O,"Township Of Walnut, OH",Ohio,Municipality,Ali Cohen,6729,,Tier 3,0.75,39.7095,-82.8518,db12b0a5-7e21-429c-8833-794aeddb876c,,,,,,,,,,,,,,,,,,,
001Hr000028Zd9S,"Township Of Northfield Center, OH",Ohio,Municipality,Ali Cohen,5566,,Tier 3,0.75,41.2946,-81.5322,b9e0546b-6433-4123-8e62-b132a845c8ba,,,,,,,,,,,,,,,,,,,
001Hr000028Zd9Y,"City Of Sylvania, OH",Ohio,Municipality,Ali Cohen,19034,,Tier 2,1.0,41.7189,-83.713,57ccd75a-9a72-4e1d-849b-e7f1caf2c268,,,,,,,,,4,2026-04-27,4,,,,,,,,
001Hr000028Zd9e,"Clermont County, OH",Ohio,County,Mihir Shah,211972,,Tier S,2.0,39.0928,-84.1857,5ad5d286-5750-46db-8730-be89ed884d81,,,,,,,,,12,2026-05-14,2,7,3,,,,,,
001Hr000028Zd9n,"City Of Niles, OH",Ohio,Municipality,Mihir Shah,18367,All Modules Live,Tier 2,1.0,41.1828,-80.7654,823ec25b-bdc5-42bd-9012-fb6c7dbac40d,Closed Won,,,David Ciano,4/1/2025,1/7/2025,"$37,000",,,,,,,,,,,,
001Hr000028ZdA3,"City Of Wickliffe, OH",Ohio,Municipality,Mihir Shah,12646,,Tier 2,1.0,41.6053,-81.4534,34c8538a-e2ae-4d17-aa82-69a9540f0f82,,,,,,,,,3,2026-02-05,3,,,,,,,,
001Hr000028ZdA8,"Jefferson County, OH",Ohio,County,Sydney Ireland,,,Tier 3,0.75,40.3872,-80.7658,f72e4a1d-d037-4138-afbb-27ab6529e868,,,,,,,,,2,2025-10-01,2,,,,,,,,
001Hr000028ZdB4,"City Of North College Hill, OH",Ohio,Municipality,Mihir Shah,9556,,Tier 3,0.75,39.2184,-84.5508,3e1ebb5a-5b35-432e-95d8-beec55e6cb41,,,,,,,,,6,2026-04-20,3,3,,,,,,,
001Hr000028ZdB5,"City Of Powell, OH",Ohio,Municipality,Mihir Shah,14286,Nurture,Tier 2,1.0,40.1578,-83.0752,71381c41-ced7-47a5-889f-8660113d8805,Closed Lost,,,Joe del Rosario,9/20/2024,1/5/2025,"$28,000",,,,,,,,,,,,
001Hr000028ZdBA,"City Of Norwalk, OH",Ohio,Municipality,Ali Cohen,17015,,Tier 2,1.0,41.2426,-82.6157,63bb6c13-6592-43d9-b616-49f8508278aa,,,,,,,,,14,2026-04-20,10,4,,,,,,,
001Hr000028ZdBB,"City Of Broadview Heights, OH",Ohio,Municipality,Mihir Shah,19686,,Tier 2,1.0,41.3139,-81.6851,70fe7bc5-4d0e-4623-aa6f-b883f0dbb922,,,,,,,,,4,2026-04-10,4,,,,,,,,
001Hr000028ZdBP,"Township Of Washington, OH",Ohio,Municipality,Ali Cohen,6610,,Tier 3,0.75,39.6162,-82.8934,69ae5819-42d3-403b-913c-4f3e62ce37e9,,,,,,,,,8,2025-08-25,,8,,,,,,,
001Hr000028ZdBY,"Township Of Clay, OH",Ohio,Municipality,Ali Cohen,8840,,Tier 3,0.75,38.9354,-82.5668,aa0f2538-9227-48e8-b097-a9667471627c,,,,,,,,,,,,,,,,,,,
001Hr000028ZdBZ,"City Of Avon Lake, OH",Ohio,Municipality,Ali Cohen,25588,Open Opportunity,Tier 1,1.5,41.5053,-82.0282,1d0f4f29-3ceb-40f4-88ab-d41c80dd7eb5,Open,Initial Interest,Top of Funnel,Emily Murnane,,10/1/2025,,,6,2026-02-02,6,,,,,,,,
001Hr000028ZdCL,"City Of Marietta, OH",Ohio,Municipality,Ali Cohen,13417,,Tier 2,1.0,39.4154,-81.4548,68894998-25b0-4ad1-8012-5781eb595897,,,,,,,,,5,2026-04-20,4,,,1,,,,,
001Hr000028ZdCM,"City Of Sharonville, OH",Ohio,Municipality,Mihir Shah,13987,Open Opportunity,Tier 2,1.0,39.2681,-84.4133,7deded86-2f6a-4030-b403-985a7f84d2b4,Open,Initial Interest,Top of Funnel,Asher Rosenfeld,,1/5/2025,,,3,2026-01-06,2,1,,,,,,,
001Hr000028ZdCS,"Township Of Boardman, OH",Ohio,Municipality,Ali Cohen,39698,,Tier 1,1.5,41.0327,-80.666,52231e07-b7b1-48bd-a4df-4800f912b3fe,,,,,,,,,,,,,,,,,,,
001Hr000028ZdCT,"City Of Cleveland Heights, OH",Ohio,Municipality,Ali Cohen,44652,,Tier 1,1.5,41.5201,-81.5562,f20a1b0d-f7d4-4eae-9cf8-0094b9d3e3e4,,,,,,,,,15,2026-04-27,11,,,4,,,,,
001Hr000028ZdCc,"City Of St Clairsville, OH",Ohio,Municipality,Mihir Shah,5048,,Tier 3,0.75,40.0803,-80.9018,6201df3e-0003-44e9-b4e5-c12eaad0e905,,,,,,,,,2,2025-09-29,2,,,,,,,,
001Hr000028ZdCd,"City Of Vermilion, OH",Ohio,Municipality,Mihir Shah,10688,,Tier 2,1.0,41.422,-82.3646,1340faf3-6f8a-4f0e-ba87-c1bf338289e7,,,,,,,,,3,2026-02-12,3,,,,,,,,
001Hr000028ZdCv,"Township Of Sagamore Hills, OH",Ohio,Municipality,Mihir Shah,10794,,Tier 2,1.0,41.3117,-81.5682,b82686b8-44d2-4522-8f1f-44514f4e5f13,,,,,,,,,1,2025-11-05,1,,,,,,,,
001Hr000028ZdD9,"Township Of Brownhelm, OH",Ohio,Municipality,Ali Cohen,7954,,Tier 3,0.75,41.405,-82.3235,b3f22467-f649-4b71-ab15-52f726f80223,,,,,,,,,3,2025-06-13,,3,,,,,,,
001Hr000028ZdDG,"Township Of Lawrence, OH",Ohio,Municipality,Ali Cohen,13506,Nurture,Tier 2,1.0,38.6233,-82.5186,92b233a2-5969-4929-8070-6d283226abf6,Closed Lost,,,Asher Rosenfeld,,1/5/2025,,,,,,,,,,,,,
001Hr000028ZdDH,"City Of Bellbrook, OH",Ohio,Municipality,Ali Cohen,7328,All Modules Live,Tier 3,0.75,39.6356,-84.0708,d65cba06-df5d-4a25-9e33-064b980816f6,Closed Won,,,Emily Murnane,11/10/2025,10/31/2025,"$15,000",,4,2025-10-31,2,2,,,,,,,
001Hr000028ZdDP,"City Of East Liverpool, OH",Ohio,Municipality,Mihir Shah,9857,,Tier 3,0.75,40.6187,-80.5773,45af85db-f21f-48bb-b907-94c91bd8c031,,,,,,,,,9,2026-02-23,9,,,,,,,,
001Hr000028ZdDe,"City Of Germantown, OH",Ohio,Municipality,Mihir Shah,5791,,Tier 3,0.75,39.6262,-84.3694,a2504aff-ad55-4dbe-bd76-70645fc67ce0,,,,,,,,,4,2025-09-17,3,1,,,,,,,
001Hr000028ZdDg,"Township Of Weathersfield, OH",Ohio,Municipality,Ali Cohen,24560,,Tier 2,1.0,41.1724,-80.7879,4684effe-1351-49a6-a4cc-1e44ca81bd28,,,,,,,,,1,2025-05-21,,,,1,,,,,
001Hr000028ZdDk,"Township Of Eaton, OH",Ohio,Municipality,Ali Cohen,5904,,Tier 3,0.75,39.7439,-84.6366,6e84e35a-7789-4c27-b9a1-6d208bf56d92,,,,,,,,,,,,,,,,,,,
001Hr000028ZdDl,"Township Of Ballville, OH",Ohio,Municipality,Ali Cohen,6016,,Tier 3,0.75,41.3278,-83.1321,b89ec2f7-2bc9-4dce-ac65-9f27d2db9c4d,,,,,,,,,,,,,,,,,,,
001Hr000028ZdDq,"City Of Belpre, OH",Ohio,Municipality,Mihir Shah,3883,,Tier 3,0.75,39.274,-81.5729,e7dc70c0-456b-4107-92ff-07a020571011,,,,,,,,,2,2025-09-19,,2,,,,,,,
001Hr000028ZdDv,"City Of Richmond Heights, OH",Ohio,Municipality,Mihir Shah,10667,,Tier 2,1.0,41.5528,-81.5101,ec99760f-6de8-430f-b76a-95ac9e834ef3,,,,,,,,,1,2025-12-31,1,,,,,,,,
001Hr000028ZdE9,"City Of Harrison, OH",Ohio,Municipality,Ali Cohen,12842,,Tier 2,1.0,39.2537,-84.7916,9253f939-78b9-46d9-a41c-f90cc8f5ceb3,,,,,,,,,12,2026-03-20,9,,,3,,,,,
001Hr000028ZdEA,"City Of Streetsboro, OH",Ohio,Municipality,Mihir Shah,17640,,Tier 2,1.0,41.2392,-81.3459,1e27d90d-068f-4e3b-86b7-dc90ce350842,,,,,,,,,3,2026-02-19,2,,,1,,,,,
001Hr000028ZdEO,"Township Of Urbana, OH",Ohio,Municipality,Ali Cohen,14175,,Tier 2,1.0,40.1084,-83.7524,76660ada-f830-4831-a1ee-7c6cd02b77ec,,,,,,,,,1,2025-06-27,,,,1,,,,,
001Hr000028ZdEP,"City Of Norwood, OH",Ohio,Municipality,Mihir Shah,18790,Open Opportunity,Tier 2,1.0,39.1645,-84.4543,10f1e838-4434-4ab2-b6fc-289f2e24f096,Open,Initial Interest,Top of Funnel,Emily Murnane,,12/29/2025,,,27,2026-05-19,12,5,10,,,,,,
001Hr000028ZdEU,"Village Of Johnstown, OH",Ohio,Municipality,Ali Cohen,5250,Open Opportunity,Tier 3,0.75,40.1537,-82.6852,e0f434e8-46aa-47d4-bbed-5b823e99bebe,,,,,,,,,5,2025-09-25,5,,,,,,,,
001Hr000028ZdEn,"City Of Wellston, OH",Ohio,Municipality,Mihir Shah,5405,,Tier 3,0.75,39.1234,-82.5329,463a315c-7da8-4ec5-b87d-c4b4d01efd8c,,,,,,,,,9,2026-03-04,2,7,,,,,,,
001Hr000028ZdEo,"Township Of Lake, OH",Ohio,Municipality,Mihir Shah,11211,,Tier 2,1.0,40.937,-81.3619,ffc2a489-28a5-489a-9815-e4a248092c20,,,,,,,,,,,,,,,,,,,
001Hr000028ZdF3,"City Of Avon, OH",Ohio,Municipality,Mihir Shah,25266,,Tier 1,1.5,41.4517,-82.0354,0d6756ea-ed55-45f5-8642-9a690f3cd453,,,,,,,,,5,2026-04-10,5,,,,,,,,
001Hr000028ZdFB,"Village Of Obetz, OH",Ohio,Municipality,Mihir Shah,5794,,Tier 3,0.75,39.8788,-82.9506,5872e42a-2f43-4f08-9c1a-570d52825c40,,,,,,,,,14,2025-12-18,14,,,,,,,,
001Hr000028ZdFC,"Township of Russell, OH",Ohio,Municipality,Mihir Shah,5433,,Tier 3,0.75,41.4651,-81.3509,97847897-090e-4919-be24-e67ebb064863,,,,,,,,,2,2025-12-30,2,,,,,,,,
001Hr000028ZdFD,"City Of Mentor On The Lake, OH",Ohio,Municipality,Ali Cohen,7092,,Tier 3,0.75,41.7129,-81.3612,13ed3ae3-7ca0-422f-b75a-9909303ab526,,,,,,,,,4,2026-03-03,4,,,,,,,,
001Hr000028ZdFH,"City Of Mount Healthy, OH",Ohio,Municipality,Ali Cohen,6928,,Tier 3,0.75,39.2337,-84.5458,723323f3-4acd-4272-bfa8-dd228ad74f7b,,,,,,,,,22,2025-11-13,18,4,,,,,,,
001Hr000028ZdFM,"Morgan Township (Butler County), OH",Ohio,Municipality,Mihir Shah,5372,Nurture,Tier 3,0.75,39.3477,-84.7524,362000b1-5140-4149-8afd-511c4c63ebac,Closed Lost,,,Emily Murnane,4/10/2026,4/8/2026,,,1,2026-04-08,1,,,,,,,,
001Hr000028ZdFQ,"City Of Tipp City, OH",Ohio,Municipality,Ali Cohen,10331,Nurture,Tier 2,1.0,39.9584,-84.1722,3058e0d8-3a18-47f3-87f7-17595187fda7,Closed Lost,,,Emily Murnane,9/22/2025,9/16/2025,,,5,2025-09-22,5,,,,,,,,
001Hr000028ZdFR,"Township Of Hamilton, OH",Ohio,Municipality,Mihir Shah,31298,,Tier 1,1.5,39.3217,-84.2116,547c8275-0136-4e10-b476-18fe56d14d90,,,,,,,,,4,2025-09-25,4,,,,,,,,
001Hr000028ZdFg,"City Of New Carlisle, OH",Ohio,Municipality,Mihir Shah,5533,Open Opportunity,Tier 3,0.75,39.9362,-84.0255,7da2f713-2f45-426b-9b34-da63458453d4,Open,Initial Interest,Top of Funnel,Emily Murnane,,2/23/2026,,,8,2026-02-23,3,5,,,,,,,
001Hr000028ZdFh,"City Of Groveport, OH",Ohio,Municipality,Mihir Shah,5910,,Tier 3,0.75,39.8532,-82.8883,35e9cf70-c701-4859-98ce-5555a0399844,,,,,,,,,1,2025-09-25,1,,,,,,,,
001Hr000028ZdFp,"Township Of Canton, OH",Ohio,Municipality,Ali Cohen,12353,,Tier 2,1.0,40.747,-81.3729,c7fdc82f-403f-46b1-b35d-9f049fea2830,,,,,,,,,1,2025-09-17,1,,,,,,,,
001Hr000028ZdFq,"Township Of Howland, OH",Ohio,Municipality,Mihir Shah,19027,,Tier 2,1.0,41.2576,-80.7325,3701458a-ac7f-4bc2-a204-fd5699148b26,,,,,,,,,,,,,,,,,,,
001Hr000028ZdFr,"City Of Pickerington, OH",Ohio,Municipality,Mihir Shah,23971,,Tier 2,1.0,39.8842,-82.7535,78c468b8-f62f-4ed5-9a87-a80f4c87a9b4,,,,,,,,,4,2026-03-10,3,,,1,,,,,
001Hr000028ZdG0,"Township Of Hinckley, OH",Ohio,Municipality,Mihir Shah,8088,,Tier 3,0.75,41.2384,-81.7451,c837d4c2-fc01-4427-bec1-9ba47e461f2e,,,,,,,,,,,,,,,,,,,
001Hr000028ZdG1,"City Of Bay Village, OH",Ohio,Municipality,Mihir Shah,15973,,Tier 2,1.0,41.4848,-81.9221,317946ae-32c6-4fe7-a9bb-0a50181028d6,,,,,,,,,3,2026-04-10,3,,,,,,,,
001Hr000028ZdGN,"City Of Reynoldsburg, OH",Ohio,Municipality,Ali Cohen,41050,Open Opportunity,Tier 1,1.5,39.9548,-82.8121,9cc0b09e-f2a4-4c9d-bac7-24a2c6b3b822,Open,Initial Interest,Top of Funnel,Emily Murnane,,9/24/2025,,Yes,17,2026-04-08,17,,,,,,,,
001Hr000028ZdGU,"Troy Township, OH",Ohio,Municipality,Ali Cohen,7079,,Tier 3,0.75,41.4744,-83.443,9d1d11b7-8991-4f4e-9416-5b9ab753c896,,,,,,,,,10,2025-08-26,,10,,,,,,,
001Hr000028ZdGa,"City Of Mayfield Heights, OH",Ohio,Municipality,Mihir Shah,20044,,Tier 2,1.0,41.5192,-81.4579,b41cf06a-8024-4a7f-a8cd-7a7c2e72f518,,,,,,,,,,,,,,,,,,,
001Hr000028ZdGd,"City Of Cortland, OH",Ohio,Municipality,Mihir Shah,7088,Open Opportunity,Tier 3,0.75,41.3303,-80.7254,2214255c-c005-43bb-b440-8eac61aa5c61,Open,Initial Interest,Top of Funnel,Leila Assil,,8/6/2025,,,21,2025-09-18,,21,,,,,,,
001Hr000028ZdGe,"City Of Fostoria, OH",Ohio,Municipality,Mihir Shah,13053,,Tier 2,1.0,41.157,-83.4169,3a0c91d8-9cd4-4fe1-84b0-406f71aab753,,,,,,,,,2,2026-04-13,2,,,,,,,,
001Hr000028ZdGm,"Licking County, OH",Ohio,County,Ali Cohen,184637,,Tier S,2.0,40.1461,-82.4753,0ed84d47-fc3b-452d-a333-e4674fb82767,,,,,,,,,1,2025-10-08,1,,,,,,,,
001Hr000028ZdHV,"City Of Ontario, OH",Ohio,Municipality,Mihir Shah,6671,,Tier 3,0.75,40.7595,-82.5902,2639320b-9c80-491b-a055-41ee3d1f4efd,,,,,,,,,22,2026-03-10,1,21,,,,,,,
001Hr000028ZdHq,"City Of Grandview Heights, OH",Ohio,Municipality,Ali Cohen,8253,,Tier 3,0.75,39.9798,-83.0407,03bcc5c9-35d8-4525-9a60-ad88dc01c936,,,,,,,,,17,2026-04-10,17,,,,,,,,
001Hr000028ZdHr,"Township Of Berlin, OH (Delaware County)",Ohio,Municipality,Mihir Shah,9651,Nurture,Tier 3,0.75,40.3033,-83.0361,2c09b719-9542-4aff-b1bd-83abce92dcef,Closed Lost,,,Sydney Ireland,2/10/2026,2/10/2026,,,3,2026-02-10,,,,,2,,,1,
001Hr000028ZdIB,"Township Of Monroe, OH",Ohio,Municipality,Mihir Shah,7860,,Tier 3,0.75,40.1708,-82.7023,4675183f-fc87-4d7b-8d16-5d8065960f52,,,,,,,,,1,2026-05-07,,,1,,,,,,
001Hr000028ZdIC,"Harrison Township (Hamilton County), OH",Ohio,Municipality,Mihir Shah,14351,,Tier 2,1.0,39.2668,-84.7942,c4f323d5-2200-4e97-965d-09ac964c9d5b,,,,,,,,,,,,,,,,,,,
001Hr000028ZdIT,"City Of Aurora, OH",Ohio,Municipality,Mihir Shah,17390,,Tier 2,1.0,41.3176,-81.3454,7bf3b318-9b70-4dc3-8800-5d61996bad42,,,,,,,,,6,2026-05-13,2,,3,,,,1,,
001Hr000028ZdIU,"City Of Pataskala, OH",Ohio,Municipality,Ali Cohen,18105,,Tier 2,1.0,39.9956,-82.6743,4594cdf8-2ff7-4b5b-9a6e-e1faa1ce4475,,,,,,,,,8,2025-12-19,5,,,3,,,,,
001Hr000028ZdIa,"Township Of Middleton, OH",Ohio,Municipality,Ali Cohen,5637,,Tier 3,0.75,40.7539,-80.5661,9b657382-919a-4092-bbeb-d302d4465086,,,,,,,,,,,,,,,,,,,
001Hr000028ZdIp,"City Of Washington Court House, OH",Ohio,Municipality,Mihir Shah,14496,,Tier 2,1.0,39.5374,-83.4376,300eaac5-f167-4f9d-821d-16dc285578c6,,,,,,,,,7,2026-03-30,7,,,,,,,,
001Hr000028ZdIq,"City Of Fremont, OH",Ohio,Municipality,Mihir Shah,15821,,Tier 2,1.0,41.3503,-83.1219,937872e5-0314-42b7-a480-083d14afc1db,,,,,,,,,11,2026-05-19,6,4,1,,,,,,
001Hr000028ZdIv,"Township Of Bloom, OH",Ohio,Municipality,Mihir Shah,10506,,Tier 2,1.0,39.7758,-82.7563,605a64aa-9793-4928-acc9-e9b74751d54d,,,,,,,,,,,,,,,,,,,
001Hr000028ZdJ0,"City Of Strongsville, OH",Ohio,Municipality,Mihir Shah,46042,Open Opportunity,Tier 1,1.5,41.3145,-81.8357,18535768-0da9-4811-a508-e60d9adaaef4,Open,Initial Interest,Top of Funnel,Emily Murnane,,8/29/2025,,,9,2026-03-06,9,,,,,,,,
001Hr000028ZdJI,"City Of Toronto, OH",Ohio,Municipality,Mihir Shah,5283,,Tier 3,0.75,40.4642,-80.6009,e237d9e9-8e24-4dcd-8dab-98e8a0069a27,,,,,,,,,8,2025-10-30,8,,,,,,,,
001Hr000028ZdJb,"Township Of Margaretta, OH",Ohio,Municipality,Mihir Shah,5589,,Tier 3,0.75,41.396,-82.7994,452b286d-b134-4d95-afd6-4810882d2854,,,,,,,,,,,,,,,,,,,
001Hr000028ZdJc,"City Of Port Clinton, OH",Ohio,Municipality,Ali Cohen,5978,,Tier 3,0.75,41.512,-82.9377,3e096d97-dfde-434b-9922-e81be277a64c,,,,,,,,,17,2026-01-05,14,3,,,,,,,
001Hr000028ZdJd,"City Of Galion, OH",Ohio,Municipality,Mihir Shah,10390,Recent Competitor Purchase,Tier 2,1.0,40.7339,-82.7896,bb571ca7-4ee5-412d-9052-3f5dc4602805,Closed Lost,,,Granger West,10/29/2024,1/5/2025,,,3,2025-09-22,3,,,,,,,,
001Hr000028ZdJg,"Township Of Jennings, OH",Ohio,Municipality,Mihir Shah,2025,,Tier 3,0.75,40.8878,-84.2805,e021dc22-b637-4cb0-95f9-9ee6fcab04b8,,,,,,,,,,,,,,,,,,,
001Hr000028ZdJq,"Township Of Ravenna, OH",Ohio,Municipality,Mihir Shah,9059,,Tier 3,0.75,41.1576,-81.242,94788430-1c18-452b-b630-cb2c46a2fbcc,,,,,,,,,11,2025-10-24,11,,,,,,,,
001Hr000028ZdJv,"City Of Bellefontaine, OH",Ohio,Municipality,Mihir Shah,14076,Open Opportunity,Tier 2,1.0,40.3612,-83.7597,bef90217-bc6a-4b4d-8624-c623e7ff13b4,Open,Initial Interest,Top of Funnel,Asher Rosenfeld,,1/5/2025,,,15,2026-05-19,11,,3,1,,,,,
001Hr000028ZdK1,"City Of Twinsburg, OH",Ohio,Municipality,Mihir Shah,19328,All Modules Live,Tier 2,1.0,41.3126,-81.4401,b5e41133-6c09-4930-868c-d2a79378dbbe,Closed Won,,,Joe del Rosario,4/29/2025,1/5/2025,"$33,000",,,,,,,,,,,,
001Hr000028ZdKB,"City Of Urbana, OH",Ohio,Municipality,Ali Cohen,11125,,Tier 2,1.0,40.1084,-83.7524,e494583e-6758-41e3-8706-461c562726f7,,,,,,,,,8,2026-04-21,2,,,6,,,,,
001Hr000028ZdKV,"City Of Louisville, OH",Ohio,Municipality,Mihir Shah,9500,Open Opportunity,Tier 3,0.75,40.8373,-81.2596,86ee445e-7bd1-49df-9594-d57dc2e7fdcc,Open,Initial Interest,Top of Funnel,Leila Assil,,8/4/2025,,,11,2026-02-20,3,8,,,,,,,
001Hr000028ZdKy,"Village Of Indian Hill, OH",Ohio,Municipality,Mihir Shah,6037,,Tier 3,0.75,39.1806,-84.345,f47eb6aa-1c0d-47a5-92ee-c8a45838f9ab,,,,,,,,,,,,,,,,,,,
001Hr000028ZdL1,"Perrysburg Township, OH",Ohio,Municipality,Ali Cohen,13503,,Tier 2,1.0,41.5121,-83.5816,9b507ab7-b8ad-4160-ba25-f04c179cb9eb,,,,,,,,,,,,,,,,,,,
001Hr000028ZdLD,"City Of Moraine, OH",Ohio,Municipality,Mihir Shah,6464,,Tier 3,0.75,39.7062,-84.2194,4065a4fd-8516-444b-b4a6-2f7709db5c54,,,,,,,,,14,2026-03-05,14,,,,,,,,
001Hr000028ZdLG,"City Of Mentor, OH",Ohio,Municipality,Ali Cohen,47221,,Tier 1,1.5,41.6662,-81.3396,a69e023c-13dc-4004-a337-9b28d7c6f3d6,,,,,,,,,9,2026-04-24,8,1,,,,,,,
001Hr000028ZdLI,"Village Of Grafton, OH",Ohio,Municipality,Mihir Shah,5594,,Tier 3,0.75,41.2726,-82.0546,be87efe1-ecb5-42fb-9831-9b5e626a417a,,,,,,,,,2,2026-03-11,2,,,,,,,,
001Hr000028ZdLT,"City Of Rossford, OH",Ohio,Municipality,Mihir Shah,6316,,Tier 3,0.75,41.6098,-83.5644,ca3bb9c9-bc7c-49ae-a4b0-c907866a1be8,,,,,,,,,4,2026-01-06,1,3,,,,,,,
001Hr000028ZdLV,"City Of Troy, OH",Ohio,Municipality,Mihir Shah,26432,Nurture,Tier 1,1.5,40.0395,-84.2033,1d5bdbac-5164-42a3-b80a-10a79d5a60e2,Closed Lost,,,Leila Assil,8/14/2025,7/10/2025,,,10,2026-01-14,1,9,,,,,,,
001Hr000028ZdLX,"Village Of Ada, OH",Ohio,Municipality,Ali Cohen,5256,,Tier 3,0.75,40.7695,-83.8227,5119af8f-8681-47c5-a1c7-cbcb30f58f03,,,,,,,,,2,2026-03-02,1,,,1,,,,,
001Hr000028ZdLc,"Township Of Sharon, OH",Ohio,Municipality,Ali Cohen,6012,,Tier 3,0.75,39.7362,-81.5654,081a4e50-d260-4abc-bd4b-f86535080852,,,,,,,,,,,,,,,,,,,
001Hr000028ZdLm,"Township Of Ohio, OH",Ohio,Municipality,Ali Cohen,5585,,Tier 3,0.75,38.9614,-84.2595,b7926d98-2533-4bde-a88f-bf59b29a7c9f,,,,,,,,,3,2025-06-06,,3,,,,,,,
001Hr000028ZdLs,"City Of Willowick, OH",Ohio,Municipality,Ali Cohen,14145,Open Opportunity,Tier 2,1.0,41.6331,-81.4687,d484c471-db1e-400b-8ebc-f973badf6244,Open,Initial Interest,Top of Funnel,Joe del Rosario,2/18/2025,1/5/2025,,,7,2026-02-12,5,,,2,,,,,
001Hr000028ZdM1,"City Of Oxford, OH",Ohio,Municipality,Ali Cohen,22625,1+ Module Live,Tier 2,1.0,39.507,-84.7452,c97a2ee8-5022-4b5c-96a6-49664a8f2021,Closed Won,,,Granger West,11/19/2024,1/5/2025,"$33,000",,,,,,,,,,,,
001Hr000028ZdM8,"City Of Euclid, OH",Ohio,Municipality,Mihir Shah,48928,,Tier 1,1.5,41.5931,-81.5268,1f425b2e-de3c-47c2-9542-7511c09dff70,,,,,,,,,6,2026-04-23,6,,,,,,,,
001Hr000028ZdML,"Township Of Orange, OH",Ohio,Municipality,Mihir Shah,38701,Open Opportunity,Tier 1,1.5,40.1691,-83.0039,f78dfa07-5e5c-41f0-a37e-9b3e97ad1197,Open,Initial Interest,Top of Funnel,Granger West,,3/7/2025,,,5,2026-03-30,4,,,,1,,,,
001Hr000028ZdMR,"City Of Macedonia, OH",Ohio,Municipality,Ali Cohen,12203,,Tier 2,1.0,41.3175,-81.5048,89e2bea7-cc1f-4467-abaa-d1b90cd75ac1,,,,,,,,,7,2026-02-02,2,,,,,,5,,
001Hr000028ZdMU,"City Of Chardon, OH",Ohio,Municipality,Mihir Shah,5206,Recent Competitor Purchase,Tier 3,0.75,41.5787,-81.2133,3388c9f2-9370-4285-b08f-b988c35e7879,Closed Lost,,,Emily Murnane,10/1/2025,9/29/2025,"$20,000",,10,2025-09-29,10,,,,,,,,
001Hr000028ZdMV,"Township Of Waterville, OH",Ohio,Municipality,Ali Cohen,7069,,Tier 3,0.75,41.5009,-83.7183,fcdbc232-e895-4c7b-843a-f1371f0da788,,,,,,,,,1,2025-12-12,1,,,,,,,,
001Hr000028ZdMZ,"Township Of Salem, OH",Ohio,Municipality,Ali Cohen,5328,,Tier 3,0.75,40.9009,-80.8568,789721a6-f6b9-4938-9221-1c2495a243a2,,,,,,,,,8,2025-07-16,,,,8,,,,,
001Hr000028ZdMo,"Township Of Berkshire, OH",Ohio,Municipality,Ali Cohen,5569,,Tier 3,0.75,40.2453,-82.9179,79039069-4654-4bd4-9e9a-5dcf366dfe70,,,,,,,,,,,,,,,,,,,
001Hr000028ZdMq,"Township Of Crosby, OH",Ohio,Municipality,Ali Cohen,6040,Nurture,Tier 3,0.75,39.2738,-84.7211,2ed28a1a-6580-4776-be27-b77e4d6d84d1,Closed Lost,,,Leila Assil,7/8/2025,7/3/2025,,,15,2026-03-02,,6,,,,8,,1,
001Hr000028ZdMs,"Township Of Geneva, OH",Ohio,Municipality,Ali Cohen,10125,,Tier 2,1.0,41.7663,-80.9437,b1753f01-41f8-4fd0-bbc0-c11fc2fc561d,,,,,,,,,,,,,,,,,,,
001Hr000028ZdMu,"Mifflin Township, OH",Ohio,Municipality,Ali Cohen,6098,Open Opportunity,Tier 3,0.75,40.0239,-82.8802,28496086-aabe-4827-8e03-82b530f5b894,Open,Meeting Booked,Top of Funnel,Leila Assil,9/2/2025,8/26/2025,,,1,2025-08-26,,1,,,,,,,
001Hr000028ZdMz,"Township Of Jefferson, OH (Ashtabula County)",Ohio,Municipality,Ali Cohen,5322,,Tier 3,0.75,41.7387,-80.7698,83b99666-7e0e-4991-a714-f662971a9b0a,,,,,,,,,,,,,,,,,,,
001Hr000028ZdN5,"Township Of Marion, OH",Ohio,Municipality,Mihir Shah,43783,,Tier 1,1.5,40.6138,-83.1435,319c6d1c-8193-425d-a086-42ede1fdb8e8,,,,,,,,,20,2025-10-16,20,,,,,,,,
001Hr000028ZdN9,"Township Of Greenfield, OH",Ohio,Municipality,Mihir Shah,5768,,Tier 3,0.75,39.352,-83.3827,cd629b7f-5711-4ff9-a18b-77ec6fbd4928,,,,,,,,,1,2025-07-18,,1,,,,,,,
001Hr000028ZdNE,"Township Of Chippewa, OH",Ohio,Municipality,Ali Cohen,9827,,Tier 3,0.75,40.9628,-81.7131,3584f7aa-b62a-4139-9702-f234f2e0d13d,,,,,,,,,,,,,,,,,,,
001Hr000028ZdNN,"Township Of Randolph, OH",Ohio,Municipality,Mihir Shah,5317,,Tier 3,0.75,41.0105,-81.2739,9cd1d43c-a450-4365-b9a5-ebcb02c02ed8,,,,,,,,,,,,,,,,,,,
001Hr000028ZdNO,"City Of Hubbard, OH",Ohio,Municipality,Ali Cohen,7610,,Tier 3,0.75,41.1564,-80.5692,449ef02c-b8ce-42b8-ac31-6ef3fa38685c,,,,,,,,,1,2025-09-17,1,,,,,,,,
001Hr000028ZdNQ,"City Of Wadsworth, OH",Ohio,Municipality,Mihir Shah,24261,Open Opportunity,Tier 2,1.0,41.0256,-81.7299,1b93958d-70c0-45b8-bbf6-1f929f05b4bc,Open,Initial Interest,Top of Funnel,Asher Rosenfeld,,1/5/2025,,,23,2026-04-27,12,11,,,,,,,
001Hr000028ZdNR,"Township Of Genoa, OH",Ohio,Municipality,Mihir Shah,25684,Open Opportunity,Tier 1,1.5,40.1829,-82.8964,ffd30409-e9fd-497b-b8fd-3eae7d2b3ca9,Open,Proposal,Mid Funnel,Sydney Ireland,2/20/2026,2/6/2026,"$15,000",Yes,1,2025-09-19,1,,,,,,,,
001Hr000028ZdNS,"Township Of Osnaburg, OH",Ohio,Municipality,Ali Cohen,5454,,Tier 3,0.75,40.7697,-81.2739,33b26e6e-7a77-44ed-9050-a9a0bbf2486d,,,,,,,,,15,2026-03-02,,,,,15,,,,
001Hr000028ZdNd,"City Of Milford, OH",Ohio,Municipality,Ali Cohen,6497,,Tier 3,0.75,39.1753,-84.2944,7a2ff842-5c7c-4964-96a1-54ff2a22ffa2,,,,,,,,,7,2026-03-06,3,4,,,,,,,
001Hr000028ZdNe,"Township Of Madison (Richland County), OH",Ohio,Municipality,Mihir Shah,11104,Open Opportunity,Tier 2,1.0,40.7895,-82.4807,079847f2-44b9-46da-b08f-5a4dcb8beecf,Open,Initial Interest,Top of Funnel,Asher Rosenfeld,,1/5/2025,,,14,2026-05-19,12,,2,,,,,,
001Hr000028ZdNm,"City Of Waterville, OH",Ohio,Municipality,Mihir Shah,6019,,Tier 3,0.75,41.5009,-83.7183,33cbe8c7-17d0-4e03-b077-3d44042d63ab,,,,,,,,,12,2025-12-30,12,,,,,,,,
001Hr000028ZdNp,"City Of Westerville, OH",Ohio,Municipality,Mihir Shah,38862,Open Opportunity,Tier 1,1.5,40.1109,-82.8856,ac82f4a9-090c-4e46-99e0-e64a3752b53a,Open,Initial Interest,Top of Funnel,Emily Murnane,,12/29/2025,,,23,2025-12-15,23,,,,,,,,
001Hr000028ZdNw,"Stonelick Township, OH",Ohio,Municipality,Ali Cohen,5707,,Tier 3,0.75,39.1431,-84.1541,135ac536-fd31-4778-8f0b-e508268e7d05,,,,,,,,,,,,,,,,,,,
001Hr000028ZdO1,"Township Of Sterling, OH",Ohio,Municipality,Ali Cohen,4696,,Tier 3,0.75,39.0723,-83.985,c017a2de-08d5-4337-ad88-82fe535d7d73,,,,,,,,,1,2025-09-16,,1,,,,,,,
001Hr000028ZdO4,"City Of Brookville, OH",Ohio,Municipality,Mihir Shah,5968,,Tier 3,0.75,39.8367,-84.4113,a4585a1f-eb40-4f21-96a1-8e782f445960,,,,,,,,,5,2026-03-04,2,3,,,,,,,
001Hr000028ZdOA,"City Of University Heights, OH",Ohio,Municipality,Mihir Shah,13852,Open Opportunity,Tier 2,1.0,41.4978,-81.5373,20f1e52b-6b5f-438b-be8b-227d2c65eee0,Open,Proposal,Mid Funnel,Emily Murnane,3/17/2026,9/5/2025,"$27,000",,16,2026-03-03,16,,,,,,,,
001Hr000028ZdOH,"Township Of Bazetta, OH",Ohio,Municipality,Ali Cohen,5911,,Tier 3,0.75,41.301,-80.7769,860c02e5-ace0-41bb-af63-61eb7790e31b,,,,,,,,,13,2025-12-12,8,5,,,,,,,
001Hr000028ZdOK,"City Of Dublin, OH",Ohio,Municipality,Mihir Shah,49085,Open Opportunity,Tier 1,1.5,40.1025,-83.1406,d6c9fd45-62c2-49dc-85a3-41a3acd7e0fb,Open,Initial Interest,Top of Funnel,Emily Murnane,,11/24/2025,,,20,2026-05-19,19,,1,,,,,,
001Hr000028ZdOL,"Township Of Liverpool, OH",Ohio,Municipality,Ali Cohen,5751,,Tier 3,0.75,41.2377,-81.9313,d0edb367-e1be-48b2-be74-b432e9c25e4c,,,,,,,,,1,2025-05-29,,1,,,,,,,
001Hr000028ZdOR,"City Of Whitehall, OH",Ohio,Municipality,Mihir Shah,20101,Open Opportunity,Tier 2,1.0,39.9667,-82.8855,cf4ed296-d0d6-4ec5-b22f-e0fe59e3eaad,Open,Initial Interest,Top of Funnel,Asher Rosenfeld,,1/5/2025,,,18,2026-04-27,18,,,,,,,,
001Hr000028ZdOV,"Township Of Perry, OH",Ohio,Municipality,Mihir Shah,5818,,Tier 3,0.75,38.4923,-82.5943,4cbe261d-331f-4c4d-8882-ca25fbc93255,,,,,,,,,3,2025-07-15,,3,,,,,,,
001Hr000028ZdOW,"Township Of Coventry, OH",Ohio,Municipality,Ali Cohen,10170,,Tier 2,1.0,41.001,-81.5487,1f6cc3b4-3919-4e13-b7fa-6b7f140b4bad,,,,,,,,,1,2025-10-09,,,,1,,,,,
001Hr000028ZdOb,"Village Of Sunbury, OH",Ohio,Municipality,Ali Cohen,7344,,Tier 3,0.75,40.2426,-82.8591,96d906ca-32cb-43c5-b5db-700d3c1b8044,,,,,,,,,11,2026-03-26,10,1,,,,,,,
001Hr000028ZdOc,"Howard Township, OH",Ohio,Municipality,Mihir Shah,5851,,Tier 3,0.75,40.4299,-82.3126,077f6e8a-74c6-40d6-904f-7b13bed23e62,,,,,,,,,1,2026-03-03,,,,,,1,,,
001Hr000028ZdOg,"Township Of Wellington, OH",Ohio,Municipality,Mihir Shah,6171,,Tier 3,0.75,41.1689,-82.2179,5689fa23-59e9-4734-81e6-bd9957883115,,,,,,,,,1,2026-05-06,,,1,,,,,,
001Hr000028ZdOi,"City Of Logan, OH",Ohio,Municipality,Ali Cohen,11875,,Tier 2,1.0,39.5401,-82.4071,7fc54c8f-b675-4ad7-8030-4acd454dd534,Open,Proposal,Mid Funnel,Emily Murnane,1/27/2026,12/30/2025,"$19,500",,8,2025-12-30,2,6,,,,,,,
001Hr000028ZdOk,"City Of Geneva, OH",Ohio,Municipality,Mihir Shah,5903,,Tier 3,0.75,41.8052,-80.9477,c863393b-f7cb-45b0-931a-b69efaab822e,,,,,,,,,6,2025-09-16,1,5,,,,,,,
001Hr000028ZdOz,"City Of Willard, OH",Ohio,Municipality,Mihir Shah,6183,,Tier 3,0.75,41.0531,-82.7263,b19a8556-f550-49a4-8694-65dbe3fa9c53,,,,,,,,,15,2026-01-07,1,14,,,,,,,
001Hr000028ZdP3,"City Of Lorain, OH",Ohio,Municipality,Ali Cohen,65430,,Tier S,2.0,41.4528,-82.1824,c613825d-b154-47f0-99dc-65b4e6b7f40e,,,,,,,,,1,2025-12-29,1,,,,,,,,
001Hr000028ZdPA,"Township Of Columbia, OH",Ohio,Municipality,Mihir Shah,7567,Open Opportunity,Tier 3,0.75,39.1692,-84.3949,0d6154c2-135b-4e78-b8b7-c8d0e55fce5c,Open,Proposal,Mid Funnel,Sydney Ireland,2/17/2026,2/5/2026,"$22,000",,1,2026-02-17,,,,,1,,,,
001Hr000028ZdPG,"City Of Mason, OH",Ohio,Municipality,Mihir Shah,35089,,Tier 1,1.5,39.3601,-84.3099,d3af0a05-86b1-4dba-b1d8-56e2cd8a76d9,,,,,,,,,3,2026-05-19,2,,1,,,,,,
001Hr000028ZdPJ,"Township Of Jackson, OH",Ohio,Municipality,Mihir Shah,6047,,Tier 3,0.75,40.8665,-81.4938,26408050-f46d-4e2e-a4d3-35a6bf4df964,,,,,,,,,21,2025-08-15,,21,,,,,,,
001Hr000028ZdPQ,"City Of Oakwood, OH",Ohio,Municipality,Mihir Shah,9471,Open Opportunity,Tier 3,0.75,39.7253,-84.1741,cb897c66-05a6-4c27-beba-ab05f494a754,Open,Initial Interest,Top of Funnel,Mihir Shah,,5/19/2026,,Yes,19,2026-05-19,17,1,1,,,,,,
001Hr000028ZdPR,"City Of Willoughby Hills, OH",Ohio,Municipality,Mihir Shah,9970,,Tier 3,0.75,41.5876,-81.4395,40372296-ce40-470d-92d2-6bf326f668f3,,,,,,,,,3,2026-04-22,2,1,,,,,,,
001Hr000028ZdPa,"Scioto Township (Pickaway County), OH",Ohio,Municipality,Ali Cohen,11545,,Tier 2,1.0,39.7533,-83.0576,f4660d8f-b7b4-457c-92ba-7acb06e2e9a3,,,,,,,,,1,2026-03-11,1,,,,,,,,
001Hr000028ZdPd,"Township Of Franklin, OH",Ohio,Municipality,Mihir Shah,6325,,Tier 3,0.75,40.3315,-81.2188,c1dfa71f-0385-474f-92e0-68d271e3771f,,,,,,,,,,,,,,,,,,,
001Hr000028ZdPe,"City Of Pepper Pike, OH",Ohio,Municipality,Ali Cohen,6830,,Tier 3,0.75,41.4784,-81.4637,df4e0626-4861-4a66-9b8f-2ce4c809b4bc,,,,,,,,,4,2025-09-23,4,,,,,,,,
001Hr000028ZdPg,"City Of Wilmington, OH",Ohio,Municipality,Ali Cohen,12502,,Tier 2,1.0,39.4453,-83.8285,1f307c42-8736-4cd2-b39a-02c72dac2e99,,,,,,,,,2,2026-04-02,1,,,1,,,,,
001Hr000028ZdPi,"City Of Columbiana, OH",Ohio,Municipality,Ali Cohen,6694,,Tier 3,0.75,40.8884,-80.694,74b82c2b-1df1-47f4-bc1b-bdccf1236d97,,,,,,,,,,,,,,,,,,,
001Hr000028ZdPj,"City Of Shaker Heights, OH",Ohio,Municipality,Ali Cohen,28970,,Tier 1,1.5,41.4739,-81.5371,5a2a8e66-7dec-4d98-b798-2887052444f4,,,,,,,,,9,2026-04-13,3,6,,,,,,,
001Hr000028ZdPn,"Township Of Auburn, OH",Ohio,Municipality,Mihir Shah,6615,,Tier 3,0.75,39.3912,-84.7022,c48fcc39-0ff8-4097-88b2-fa908b91fb37,,,,,,,,,4,2026-05-15,,,4,,,,,,
001Hr000028ZdPp,"Carlisle Township, OH",Ohio,Municipality,Mihir Shah,7157,Open Opportunity,Tier 3,0.75,41.3106,-82.1061,c35e40c4-c19d-40b8-a525-f200e6fbe294,Open,Meeting Booked,Top of Funnel,Ali Cohen,2/16/2026,2/4/2026,,,8,2026-02-24,,5,,,2,1,,,
001Hr000028ZdPq,"City Of Brook Park, OH",Ohio,Municipality,Ali Cohen,18318,Open Opportunity,Tier 2,1.0,41.3984,-81.8046,1a6dff76-c4d0-4fed-ab1c-037f6d9a4242,Open,Initial Interest,Top of Funnel,Emily Murnane,4/23/2026,4/16/2026,,Yes,12,2026-04-28,12,,,,,,,,
001Hr000028ZdPx,"City Of Hillsboro, OH",Ohio,Municipality,Ali Cohen,6483,,Tier 3,0.75,39.2023,-83.6116,9272c328-3f28-4672-a9cc-ebf1852b0f11,,,,,,,,,8,2025-09-18,8,,,,,,,,
001Hr000028ZdQ1,"City Of Upper Arlington, OH",Ohio,Municipality,Mihir Shah,36295,,Tier 1,1.5,40.0252,-83.0575,61783609-8204-4eca-9cfd-b11fc9eeb93f,,,,,,,,,7,2026-04-15,4,,,3,,,,,
001Hr000028ZdQ4,"City Of Conneaut, OH",Ohio,Municipality,Ali Cohen,12181,,Tier 2,1.0,41.9476,-80.5542,f4482800-e04e-463e-8499-1fd290368b6a,,,,,,,,,8,2026-04-22,5,3,,,,,,,
001Hr000028ZdQ6,"City Of Newark, OH",Ohio,Municipality,Mihir Shah,50383,,Tier S,2.0,40.0581,-82.4013,06c2e737-b894-4336-8f0e-dad9b88cc68e,,,,,,,,,26,2026-04-09,15,11,,,,,,,
001Hr000028ZdQ7,"Township Of Amherst, OH",Ohio,Municipality,Ali Cohen,6548,,Tier 3,0.75,41.3671,-82.204,797b49f7-9629-48e3-b47c-20835a518820,,,,,,,,,,,,,,,,,,,
001Hr000028ZdQD,"Township Of Nimishillen, OH",Ohio,Municipality,Ali Cohen,9291,Open Opportunity,Tier 3,0.75,40.8933,-81.2276,96a9504c-5af0-4302-b964-f9dd2e6fac2e,Open,Initial Interest,Top of Funnel,Leila Assil,,6/23/2025,,,17,2026-03-04,10,7,,,,,,,
001Hr000028ZdQE,"Township Of Medina, OH",Ohio,Municipality,Mihir Shah,9246,,Tier 3,0.75,41.1725,-81.8443,7405d585-b80e-4dbe-988e-1cb79b9d985e,,,,,,,,,1,2025-09-25,1,,,,,,,,
001Hr000028ZdQF,"City Of New Albany, OH",Ohio,Municipality,Mihir Shah,10854,,Tier 2,1.0,40.0822,-82.8101,54ddfec6-06dc-48bc-82de-8729b929a908,,,,,,,,,5,2026-04-08,5,,,,,,,,
001Hr000028ZdQH,"Butler Township (Mercer County), OH",Ohio,Municipality,Ali Cohen,6593,,Tier 3,0.75,40.4897,-84.627,5c55c8c7-299c-4d13-b5da-cb81d0fc866c,,,,,,,,,,,,,,,,,,,
001Hr000028ZdQM,"Township Of Pease, OH",Ohio,Municipality,Ali Cohen,12721,,Tier 2,1.0,40.1219,-80.7436,ce3cd437-5092-4d63-ad36-a17c85c06b8d,,,,,,,,,5,2025-09-24,,5,,,,,,,
001Hr000028ZdQN,"Township Of Jerome, OH",Ohio,Municipality,Mihir Shah,9959,,Tier 3,0.75,40.1663,-83.1764,97fdce15-df34-4b02-8158-a7955d3aaf3b,,,,,,,,,8,2026-02-23,3,5,,,,,,,
001Hr000028ZdQP,"City Of North Olmsted, OH",Ohio,Municipality,Mihir Shah,31991,,Tier 1,1.5,41.4156,-81.9235,16de592b-3863-4722-aaac-a39e27b3092b,,,,,,,,,6,2026-04-09,5,1,,,,,,,
001Hr000028ZdQR,"City Of Kirtland, OH",Ohio,Municipality,Mihir Shah,6917,,Tier 3,0.75,41.6289,-81.3615,712859cb-9c3a-4a4e-bd0a-f53481369309,,,,,,,,,10,2025-11-05,1,9,,,,,,,
001Hr000028ZdQV,"Portage County, OH",Ohio,County,Mihir Shah,,,Tier 3,0.75,41.1888,-81.2519,e6130506-d9f8-4ea1-b51c-a7cc6de5b046,,,,,,,,,8,2026-05-18,,7,1,,,,,,
001Hr000028ZdQX,"City Of Huron, OH",Ohio,Municipality,Ali Cohen,6860,,Tier 3,0.75,41.395,-82.5555,6d8936bc-2b44-4ec1-9bb5-ee5baf08158c,,,,,,,,,5,2025-07-18,,5,,,,,,,
001Hr000028ZdQZ,"Township Of Bath, OH",Ohio,Municipality,Ali Cohen,9214,,Tier 3,0.75,41.1568,-81.6353,5bf616d5-dc6d-4eff-923e-1c9365ad951a,,,,,,,,,,,,,,,,,,,
001Hr000028ZdQb,"City Of Union, OH",Ohio,Municipality,Ali Cohen,6852,,Tier 3,0.75,39.8977,-84.3063,853a588e-3d95-44fb-908d-cdbad85ad3cf,,,,,,,,,15,2025-10-15,1,14,,,,,,,
001Hr000028ZdQc,"City Of Zanesville, OH",Ohio,Municipality,Mihir Shah,24721,Open Opportunity,Tier 2,1.0,39.9403,-82.0132,1912faa9-b1ce-43ab-b5ab-d6fd9a01ec4f,Open,Initial Interest,Top of Funnel,Granger West,10/24/2024,1/5/2025,,,7,2026-04-14,7,,,,,,,,
001Hr000028ZdQd,"Township Of Batavia, OH",Ohio,Municipality,Mihir Shah,27745,,Tier 1,1.5,39.071,-84.1646,dec2d779-6d0b-4a7b-8a89-8fe228426d7a,,,,,,,,,4,2025-07-22,,,,4,,,,,
001Hr000028ZdQg,"Township Of Xenia, OH",Ohio,Municipality,Mihir Shah,6808,,Tier 3,0.75,39.6848,-83.9297,c7ec4c71-c1cd-4acb-aae0-9d07df9bee10,,,,,,,,,10,2025-12-26,1,9,,,,,,,
001Hr000028ZdQj,"Village of Amelia, OH",Ohio,Municipality,Mihir Shah,11795,,Tier 2,1.0,39.0284,-84.2177,6e85ce39-a246-43aa-94e5-98b1405f2b72,,,,,,,,,,,,,,,,,,,
001Hr000028ZdQn,"Township Of Sugarcreek, OH",Ohio,Municipality,Mihir Shah,9553,,Tier 3,0.75,40.5031,-81.641,718a5b5e-3e9a-461f-ab51-88f1bf8bd57b,,,,,,,,,1,2025-07-17,,1,,,,,,,
001Hr000028ZdQo,"City Of Fairview Park, OH",Ohio,Municipality,Mihir Shah,17026,Nurture,Tier 2,1.0,41.4414,-81.8643,325a42e4-4e93-4731-9efc-79ca542a29bc,Closed Lost,,,Asher Rosenfeld,,1/5/2025,,,3,2025-09-24,3,,,,,,,,
001Hr000028ZdQp,"City Of North Ridgeville, OH",Ohio,Municipality,Mihir Shah,36240,1+ Module Live,Tier 1,1.5,41.3895,-82.019,57e1bd0d-51e3-4100-b3ff-716d09918c6f,Closed Won,,,Granger West,3/14/2025,3/6/2025,"$46,000",,,,,,,,,,,,
001Hr000028ZdQq,"Township Of Beaver, OH",Ohio,Municipality,Mihir Shah,6749,,Tier 3,0.75,40.9435,-80.6771,bb31e507-1953-4d83-9be9-f662c88911b5,,,,,,,,,1,2026-05-06,,,1,,,,,,
001Hr000028ZdQt,"Poland Township, OH",Ohio,Municipality,Ali Cohen,14540,,Tier 2,1.0,41.0236,-80.555,5fc2f706-3543-4f58-b66b-c32b167ceb83,,,,,,,,,3,2025-06-10,,3,,,,,,,
001Hr000028ZdQw,"City Of Heath, OH",Ohio,Municipality,Ali Cohen,10538,Nurture,Tier 2,1.0,40.0228,-82.4446,def8bc96-6a72-4346-a126-0f7f283abc43,Closed Lost,,,Granger West,11/13/2024,1/5/2025,,,24,2026-04-27,24,,,,,,,,
001Hr000028ZdR7,"Township Of Shawnee, OH",Ohio,Municipality,Ali Cohen,12319,Nurture,Tier 2,1.0,39.6048,-82.2115,2a13ff64-2732-42b4-8b9c-64dbe8f1ca24,Closed Lost,,,Sydney Ireland,2/11/2026,2/5/2026,,,,,,,,,,,,,
001Hr000028ZdRF,"City Of Wauseon, OH",Ohio,Municipality,Ali Cohen,7525,,Tier 3,0.75,41.5492,-84.1416,4fce78b1-4672-4fdc-adc2-9c231592c976,,,,,,,,,1,2025-09-17,1,,,,,,,,
001Hr000028ZdRG,"City Of Bellevue, OH",Ohio,Municipality,Mihir Shah,8198,,Tier 3,0.75,41.2737,-82.8416,9985c926-b79e-42ef-bc8e-29432ab186cb,,,,,,,,,5,2026-04-20,5,,,,,,,,
001Hr000028ZdRL,"City Of Montgomery, OH",Ohio,Municipality,Mihir Shah,10804,Nurture,Tier 2,1.0,39.2281,-84.3541,dacef2d0-fca9-4faf-b0dc-9f6f7fae1927,Closed Lost,,,Emily Murnane,10/22/2025,10/17/2025,,,8,2026-04-27,8,,,,,,,,
001Hr000028ZdRN,"City Of South Euclid, OH",Ohio,Municipality,Mihir Shah,21608,,Tier 2,1.0,41.5231,-81.5185,52f245d8-7f7f-4675-92bf-361d83cfc8de,,,,,,,,,28,2026-04-23,28,,,,,,,,
001Hr000028ZdRQ,"City Of Sidney, OH",Ohio,Municipality,Mihir Shah,20421,,Tier 2,1.0,40.2842,-84.1555,1f8cf844-fde2-4dd6-8d20-9c1c424783b6,,,,,,,,,6,2026-04-13,4,,,2,,,,,
001Hr000028ZdRV,"City Of Campbell, OH",Ohio,Municipality,Mihir Shah,7731,,Tier 3,0.75,41.0784,-80.5992,032de429-88cc-4c2c-b841-de87f484a9f7,,,,,,,,,19,2026-03-09,2,17,,,,,,,
001Hr000028ZdRW,"City Of Wapakoneta, OH",Ohio,Municipality,Ali Cohen,9840,Nurture,Tier 3,0.75,40.5678,-84.1936,4161e79a-7b8b-46d0-a748-f4eb82d4d1b6,Closed Lost,,,Leila Assil,7/7/2025,7/3/2025,,,4,2026-03-03,2,2,,,,,,,
001Hr000028ZdRc,"Township Of Plain, OH",Ohio,Municipality,Ali Cohen,53419,,Tier S,2.0,40.8877,-81.3729,04f64d78-0efb-4079-b6a4-4a8a1c837f79,,,,,,,,,5,2025-09-16,,5,,,,,,,
001Hr000028ZdRe,"Township Of German, OH",Ohio,Municipality,Mihir Shah,7530,,Tier 3,0.75,39.6211,-84.4173,804f4f44-ca52-486f-bb92-b01d8f0c2cd5,,,,,,,,,,,,,,,,,,,
001Hr000028ZdRg,"City Of Orrville, OH",Ohio,Municipality,Ali Cohen,8471,,Tier 3,0.75,40.8437,-81.764,8713e0b8-1e79-43e0-a381-a89b5aed38ae,,,,,,,,,2,2026-04-20,1,1,,,,,,,
001Hr000028ZdRy,"City Of Independence, OH",Ohio,Municipality,Mihir Shah,7523,,Tier 3,0.75,41.3687,-81.6379,0acf093c-a6ba-4680-8ef3-e64c43a75ab1,,,,,,,,,10,2025-11-13,10,,,,,,,,
001Hr000028ZdS4,"City Of Portsmouth, OH",Ohio,Municipality,Ali Cohen,18014,,Tier 2,1.0,38.7317,-82.9977,35b72430-7f86-47bb-97ac-3ede94798c71,,,,,,,,,14,2026-04-22,14,,,,,,,,
001Hr000028ZdSC,"City Of Girard, OH",Ohio,Municipality,Ali Cohen,9553,Nurture,Tier 3,0.75,41.1539,-80.7015,f437f1f1-892d-4cb4-a25b-35e49b62813b,Closed Lost,,,Joe del Rosario,6/24/2025,6/24/2025,"$16,000",,6,2026-02-05,6,,,,,,,,
001Hr000028ZdSE,"City Of Steubenville, OH",Ohio,Municipality,Ali Cohen,17962,Recent Competitor Purchase,Tier 2,1.0,40.3698,-80.634,fe9599aa-7040-419a-8f0e-21d435921656,Closed Lost,,,Emily Murnane,,10/22/2025,,,8,2026-04-09,5,,,3,,,,,
001Hr000028ZdSF,"City Of Sandusky, OH",Ohio,Municipality,Mihir Shah,24758,All Modules Live,Tier 2,1.0,41.4562,-82.7117,0f213e46-a6c1-4ebe-a189-20e10cc07f0c,Closed Won,,,Joe del Rosario,10/4/2024,1/5/2025,"$38,000",,1,2025-10-03,1,,,,,,,,
001Hr000028ZdSM,"Fayette County, OH",Ohio,County,Mihir Shah,28700,,Tier 1,1.5,39.592,-83.4644,2e6e7008-b573-4562-a5d6-1748a5879966,,,,,,,,,1,2025-09-29,1,,,,,,,,
001Hr000028ZdSO,"Township Of Concord, OH",Ohio,Municipality,Ali Cohen,11567,Open Opportunity,Tier 2,1.0,39.0579,-83.6597,c765241e-b4f9-4fdf-8abf-8b15bae122e4,Open,Initial Interest,Top of Funnel,Sydney Ireland,2/12/2026,2/6/2026,,,6,2026-03-04,,,,,2,4,,,
001Hr000028ZdSj,"City Of Canal Winchester, OH",Ohio,Municipality,Mihir Shah,9514,,Tier 3,0.75,39.8428,-82.8056,28b0f1e6-5ce2-4ce1-9d26-f336fa273b45,,,,,,,,,6,2026-02-04,2,4,,,,,,,
001Hr000028ZdSo,"City Of Reading, OH",Ohio,Municipality,Mihir Shah,10467,,Tier 2,1.0,39.2237,-84.4422,9ccb4cfe-5b2e-427a-b08c-a28706216e1f,,,,,,,,,6,2026-04-07,6,,,,,,,,
001Hr000028ZdSr,"City Of Eaton, OH",Ohio,Municipality,Ali Cohen,8358,Open Opportunity,Tier 3,0.75,39.7439,-84.6366,d8e6ce23-aba2-470b-960d-54554acc75af,Open,Initial Interest,Top of Funnel,Leila Assil,,5/8/2025,,,12,2026-02-04,9,3,,,,,,,
001Hr000028ZdSs,"Township Of Champion, OH",Ohio,Municipality,Mihir Shah,9367,,Tier 3,0.75,41.299,-80.8765,416e56f5-116e-4145-9769-21a1a8f09b7c,,,,,,,,,1,2025-07-09,,1,,,,,,,
001Hr000028ZdSw,"City Of St Marys, OH",Ohio,Municipality,Ali Cohen,8411,,Tier 3,0.75,40.5425,-84.3896,e67b14f4-6693-458f-ba95-cfcdef3efd0f,,,,,,,,,6,2025-09-09,6,,,,,,,,
001Hr000028ZdT1,"Township Of Harrison, OH",Ohio,Municipality,Mihir Shah,8661,,Tier 3,0.75,39.2668,-84.7942,7aa62179-3922-4321-9ef3-21b338461bbb,,,,,,,,,3,2025-06-12,,3,,,,,,,
001Hr000028ZdT4,"Township Of Colerain, OH",Ohio,Municipality,Ali Cohen,58819,Open Opportunity,Tier S,2.0,39.2592,-84.627,81739670-f4b0-41aa-8ac5-b34e5ff87139,Open,Initial Interest,Top of Funnel,Sydney Ireland,,2/5/2026,,,20,2026-02-17,,16,,,4,,,,
001Hr000028ZdT9,"City Of Maple Heights, OH",Ohio,Municipality,Ali Cohen,23322,,Tier 2,1.0,41.4153,-81.566,b5d588b3-d676-4300-a92b-8f8fa7fc7e4f,,,,,,,,,2,2025-12-19,2,,,,,,,,
001Hr000028ZdTB,"City Of Oberlin, OH",Ohio,Municipality,Mihir Shah,8249,,Tier 3,0.75,41.2939,-82.2174,3114c329-3db9-4e75-a059-e926e658ca29,,,,,,,,,14,2026-04-27,14,,,,,,,,
001Hr000028ZdTJ,"Township Of Canfield, OH",Ohio,Municipality,Mihir Shah,16723,Recent Competitor Purchase,Tier 2,1.0,41.0251,-80.7609,8d1c3594-9101-477a-b95e-30128ed5bd96,Closed Lost,,,Granger West,2/9/2026,2/4/2026,"$13,500",,,,,,,,,,,,
001Hr000028ZdTQ,"City Of Bryan, OH",Ohio,Municipality,Mihir Shah,8609,,Tier 3,0.75,41.4748,-84.5525,fdacc3eb-06c1-46bd-ad84-6c84dcf4d418,,,,,,,,,13,2026-04-10,3,10,,,,,,,
001Hr000028ZdTV,"Liberty Township, OH",Ohio,Municipality,Ali Cohen,8205,,Tier 3,0.75,39.4015,-84.4094,41400c62-d6e3-4baf-9a1b-b58e42c9984e,,,,,,,,,,,,,,,,,,,
001Hr000028ZdTa,"Township Of Rootstown, OH",Ohio,Municipality,Ali Cohen,8662,,Tier 3,0.75,41.0992,-81.2426,aa4078ef-8d1e-41ae-9658-a634f0d41a72,,,,,,,,,8,2026-02-17,8,,,,,,,,
001Hr000028ZdTd,"Miami County, OH",Ohio,County,Mihir Shah,110876,,Tier S,2.0,40.0815,-84.1857,0bb44c3c-4db7-4306-9790-ad53d31b99ac,,,,,,,,,4,2026-04-22,4,,,,,,,,
001Hr000028ZdTf,"Township Of Falls, OH",Ohio,Municipality,Ali Cohen,8710,,Tier 3,0.75,39.9792,-82.004,67b53f08-3f4c-4499-bd54-666df844c13f,,,,,,,,,2,2025-09-26,2,,,,,,,,
001Hr000028ZdTi,"City Of Blue Ash, OH",Ohio,Municipality,Mihir Shah,13344,,Tier 2,1.0,39.232,-84.3783,820449c7-31a6-4471-9873-6d7189cfe1b7,,,,,,,,,2,2026-02-19,1,,,1,,,,,
001Hr000028ZdTk,"City Of Olmsted Falls, OH",Ohio,Municipality,Mihir Shah,8628,,Tier 3,0.75,41.375,-81.9082,3a25497b-3138-449a-9636-55f1d4e23d73,,,,,,,,,11,2026-02-03,11,,,,,,,,
001Hr000028ZdTl,"City Of Mount Vernon, OH",Ohio,Municipality,Mihir Shah,16894,,Tier 2,1.0,40.3932,-82.4854,bc790b80-119e-4a24-bb71-c161380f361b,,,,,,,,,15,2026-05-19,4,,11,,,,,,
001Hr000028ZdTu,"City Of Napoleon, OH",Ohio,Municipality,Mihir Shah,8794,,Tier 3,0.75,41.3921,-84.1255,1ffa9749-c737-4093-b23e-2d123ce26773,,,,,,,,,4,2025-09-25,2,2,,,,,,,
001Hr000028ZdTw,"City Of Middleburg Heights, OH",Ohio,Municipality,Ali Cohen,15830,Nurture,Tier 2,1.0,41.3614,-81.8129,a2e6c4a0-1fc9-48e1-bfb9-43a0437bd647,Closed Lost,,,Joe del Rosario,9/25/2024,1/5/2025,"$25,000",,4,2026-03-03,2,,,2,,,,,
001Hr000028ZdTx,"City Of Berea, OH",Ohio,Municipality,Mihir Shah,18682,,Tier 2,1.0,41.3662,-81.8543,5a4fca11-ce42-467d-9ea2-7f717bd50fc3,,,,,,,,,16,2026-04-22,16,,,,,,,,
001Hr000028ZdU0,"City Of Bowling Green, OH",Ohio,Municipality,Mihir Shah,30677,,Tier 1,1.5,41.3748,-83.6513,4a9e4cb9-0cbc-4123-84b2-bd4259071742,,,,,,,,,12,2026-04-27,12,,,,,,,,
001Hr000028ZdU6,"City Of Monroe, OH",Ohio,Municipality,Ali Cohen,15448,Open Opportunity,Tier 2,1.0,39.4451,-84.361,d8297b4c-f32a-4339-a4d7-b925f9bd156f,Open,Initial Interest,Top of Funnel,Emily Murnane,,9/5/2025,,,22,2026-02-04,22,,,,,,,,
001Hr000028ZdUF,"City Of Springdale, OH",Ohio,Municipality,Mihir Shah,10910,,Tier 2,1.0,39.287,-84.4852,4b5eba1b-cbe6-47df-b3d9-2a404bf3f827,,,,,,,,,3,2026-04-27,3,,,,,,,,
001Hr000028ZdUI,"City Of Trenton, OH",Ohio,Municipality,Mihir Shah,13305,Open Opportunity,Tier 2,1.0,39.4809,-84.4577,5f99170c-d935-4635-8820-53c941192815,Open,Initial Interest,Top of Funnel,Emily Murnane,,10/30/2025,,,19,2026-02-19,19,,,,,,,,
001Hr000028ZdUR,"City Of Canton, OH",Ohio,Municipality,Mihir Shah,70426,,Tier S,2.0,40.7974,-81.377,7b2c6631-6d2f-4c93-b068-fc95d15f69f7,,,,,,,,,28,2026-04-13,16,12,,,,,,,
001Hr000028ZdUe,"City Of Westlake, OH",Ohio,Municipality,Ali Cohen,33986,Recent Competitor Purchase,Tier 1,1.5,41.4553,-81.9179,4c9ec9b4-2474-46c3-814d-8aea57df39ad,,,,,,,,,4,2025-12-17,2,2,,,,,,,
001Hr000028ZdUi,"Fairfield Township (Columbiana County), OH",Ohio,Municipality,Mihir Shah,9824,Open Opportunity,Tier 3,0.75,40.8451,-80.6993,52531ffd-7a9d-48b5-98aa-06d27397fe32,Open,Initial Interest,Top of Funnel,Asher Rosenfeld,,1/5/2025,,,4,2026-05-19,,,2,,,2,,,
001Hr000028ZdUx,"City Of Cambridge, OH",Ohio,Municipality,Ali Cohen,10036,Nurture,Tier 2,1.0,40.0247,-81.5848,b82bc61b-e881-48e7-ae5f-3f13bd83af16,Closed Lost,,,Emily Murnane,10/16/2025,10/9/2025,,,5,2025-10-14,4,,,,,,,,1
001Hr000028ZdVA,"City Of Piqua, OH",Ohio,Municipality,Mihir Shah,20442,1+ Module Live,Tier 2,1.0,40.1448,-84.2424,5b96df42-8919-4f00-a7c9-09343b9941b6,Closed Won,,,Asher Rosenfeld,5/16/2024,1/5/2025,"$19,660",,,,,,,,,,,,
001Hr000028ZdVC,"City Of Bedford Heights, OH",Ohio,Municipality,Mihir Shah,10858,,Tier 2,1.0,41.4021,-81.5018,1b71fb15-b820-4094-a0e5-f0ca6c9ba45b,,,,,,,,,2,2026-03-09,1,,,1,,,,,
001Hr000028ZdVD,"City Of Amherst, OH",Ohio,Municipality,Mihir Shah,12870,All Modules Live,Tier 2,1.0,41.3978,-82.2224,10e0c14a-ae1c-480b-978a-49fd4a786d5e,Closed Won,,,Asher Rosenfeld,10/21/2024,1/5/2025,"$15,000",,,,,,,,,,,,
001Hr000028ZdVH,"City Of London, OH",Ohio,Municipality,Ali Cohen,10514,,Tier 2,1.0,39.8864,-83.4483,a8c43954-2881-488c-979e-ab9923b9c968,,,,,,,,,3,2026-04-02,3,,,,,,,,
001Hr000028ZdVM,"Huron Township, OH",Ohio,Municipality,Mihir Shah,10707,,Tier 2,1.0,41.395,-82.5555,a9984b04-4554-439a-8c0b-c3ec36bcbed9,,,,,,,,,3,2026-01-12,3,,,,,,,,
001Hr000028ZdVU,"Township Of Etna, OH",Ohio,Municipality,Mihir Shah,19189,Open Opportunity,Tier 2,1.0,39.9573,-82.6826,ec3da3c7-d3e9-4e80-b7fc-cc4e33c6fed9,Open,Meeting Booked,Top of Funnel,Sydney Ireland,3/16/2026,2/5/2026,,,1,2026-03-12,,,,,1,,,,
001Hr000028ZdVX,"City Of Salem, OH",Ohio,Municipality,Mihir Shah,11825,Nurture,Tier 2,1.0,40.9009,-80.8568,36d72ba4-d718-47ba-8390-c514d30085f8,Closed Lost,,,Joe del Rosario,9/16/2024,1/5/2025,,,1,2025-12-29,1,,,,,,,,
001Hr000028ZdVa,"Township Of Anderson, OH",Ohio,Municipality,Ali Cohen,43707,,Tier 1,1.5,39.0902,-84.3437,e05d3f69-435b-405a-bf2b-b482b55589e9,,,,,,,,,,,,,,,,,,,
001Hr000028ZdVl,"City Of Coshocton, OH",Ohio,Municipality,Mihir Shah,11043,,Tier 2,1.0,40.272,-81.8596,89505f46-6a6d-45f8-9284-dc03c607e787,,,,,,,,,14,2026-04-24,4,,,10,,,,,
001Hr000028ZdVo,"Tuscarawas County, OH",Ohio,County,Mihir Shah,92585,Nurture,Tier S,2.0,40.3979,-81.4279,b1f1774f-54e4-42fd-87dd-074628426708,Closed Lost,,,Emily Murnane,11/19/2025,11/17/2025,,,8,2026-02-05,8,,,,,,,,
001Hr000028ZdVv,"Township Of Brunswick Hills, OH",Ohio,Municipality,Ali Cohen,11254,Open Opportunity,Tier 2,1.0,41.2186,-81.8607,7be1abe0-d6ee-4b7f-8272-6b6e196f85ef,Open,Meeting Booked,Top of Funnel,Ali Cohen,3/4/2026,2/4/2026,,,6,2026-03-11,,,,1,2,3,,,
001Hr000028ZdVy,"City Of Solon, OH",Ohio,Municipality,Ali Cohen,23929,,Tier 2,1.0,41.3898,-81.4412,59e5a092-c63d-457b-86d8-3f0a7bacb158,,,,,,,,,11,2026-04-27,11,,,,,,,,
001Hr000028ZdW6,"City Of Springboro, OH",Ohio,Municipality,Mihir Shah,19263,,Tier 2,1.0,39.5523,-84.2333,e2e59320-07b0-443f-9a33-c7c4bf9a0419,,,,,,,,,2,2026-02-02,1,,,1,,,,,
001Hr000028ZdWA,"City Of Ravenna, OH",Ohio,Municipality,Mihir Shah,11313,Open Opportunity,Tier 2,1.0,41.1576,-81.242,b1b9b658-79a0-4f5f-92d1-47b5897e432a,Open,Initial Interest,Top of Funnel,Emily Murnane,,10/15/2025,,Yes,49,2026-05-19,34,2,13,,,,,,
001Hr000028ZdWK,"City Of Brooklyn, OH",Ohio,Municipality,Mihir Shah,11177,,Tier 2,1.0,41.4301,-81.7512,5ec9284c-bf29-4202-a3ce-8df6633e109a,,,,,,,,,19,2026-04-24,4,15,,,,,,,
001Hr000028ZdWL,"City Of Lyndhurst, OH",Ohio,Municipality,Mihir Shah,13841,,Tier 2,1.0,41.5201,-81.4887,b6bf6bbd-fa51-4f0d-a43d-08ec88eca860,,,,,,,,,4,2026-03-12,3,,,1,,,,,
001Hr000028ZdWP,"City Of Norton, OH",Ohio,Municipality,Mihir Shah,11571,,Tier 2,1.0,41.0292,-81.6382,508dc0bb-03e2-4843-a24c-06c0c66dd24d,,,,,,,,,11,2026-05-13,7,,4,,,,,,
001Hr000028ZdWQ,"Springfield Township (Clark County), OH",Ohio,Municipality,Mihir Shah,12275,Open Opportunity,Tier 2,1.0,39.8819,-83.7889,289dd4b0-7914-4460-9970-56bf72a357c5,Open,Initial Interest,Top of Funnel,Ali Cohen,,2/5/2026,,,11,2026-03-20,11,,,,,,,,
001Hr000028ZdWR,"City Of Trotwood, OH",Ohio,Municipality,Ali Cohen,22968,,Tier 2,1.0,39.7973,-84.3113,b9376464-d7e9-4032-af2c-6e1ca0f89f44,,,,,,,,,21,2026-04-20,11,10,,,,,,,
001Hr000028ZdWV,"City Of East Cleveland, OH",Ohio,Municipality,Mihir Shah,13586,,Tier 2,1.0,41.5331,-81.579,cc268be1-eac5-423d-8f0a-761d326dc1f8,,,,,,,,,10,2026-04-23,10,,,,,,,,
001Hr000028ZdWa,"City Of Hudson, OH",Ohio,Municipality,Mihir Shah,22983,,Tier 2,1.0,41.2401,-81.4407,9ff07a43-c585-423b-a924-a9ecca754fd5,,,,,,,,,5,2025-10-13,5,,,,,,,,
001Hr000028ZdWj,"City Of Seven Hills, OH",Ohio,Municipality,Ali Cohen,11604,,Tier 2,1.0,39.1031,-84.512,a340d21c-eeac-4fa8-a777-a0147422d385,,,,,,,,,8,2025-10-07,8,,,,,,,,
001Hr000028ZdWo,"City Of Franklin, OH",Ohio,Municipality,Ali Cohen,11636,,Tier 2,1.0,39.5589,-84.3041,e6974bbe-3b6c-4e7d-b2b4-66f528869421,,,,,,,,,5,2025-12-17,1,4,,,,,,,
001Hr000028ZdWv,"City Of Lancaster, OH",Ohio,Municipality,Ali Cohen,40763,Nurture,Tier 1,1.5,39.7137,-82.6019,fa3b447c-9679-4464-8ce2-83a8d9e7092e,Closed Lost,,,Granger West,10/23/2024,1/5/2025,,,6,2026-02-13,6,,,,,,,,
001Hr000028ZdX4,"City Of Greenville, OH",Ohio,Municipality,Ali Cohen,12715,Open Opportunity,Tier 2,1.0,40.1028,-84.6329,c1e9b70c-6c40-4fc1-9129-6454d668cacb,Open,Initial Interest,Top of Funnel,Asher Rosenfeld,,1/5/2025,,,4,2026-02-13,4,,,,,,,,
001Hr000028ZdX5,"Sycamore Township, OH",Ohio,Municipality,Ali Cohen,19546,,Tier 2,1.0,39.2067,-84.3797,24d88282-d5ba-404b-8a92-62835ebb2a18,,,,,,,,,,,,,,,,,,,
001Hr000028ZdX6,"City Of Painesville, OH",Ohio,Municipality,Mihir Shah,20591,Nurture,Tier 2,1.0,41.7245,-81.2457,9a0668df-0d68-4ffa-ba1f-8fbf14917dba,Closed Lost,,,Asher Rosenfeld,,1/5/2025,,,5,2025-10-24,5,,,,,,,,
001Hr000028ZdX7,"Greene County, OH",Ohio,County,Mihir Shah,169691,,Tier S,2.0,39.6974,-83.8897,63aaca70-0e46-4384-a642-49a8449b32c6,,,,,,,,,7,2026-05-19,,,7,,,,,,
001Hr000028ZdX9,"City Of Rocky River, OH",Ohio,Municipality,Ali Cohen,21510,,Tier 2,1.0,41.4768,-81.8498,7b871324-acbf-4c31-a6cd-4f95658a65a2,,,,,,,,,1,2025-12-18,1,,,,,,,,
001Hr000028ZdXA,"City Of Riverside, OH",Ohio,Municipality,Ali Cohen,24350,Open Opportunity,Tier 2,1.0,39.7798,-84.1241,11886cf6-079b-4f2b-bc6f-aabd37807223,Open,Initial Interest,Top of Funnel,Asher Rosenfeld,,1/5/2025,,,10,2026-02-23,10,,,,,,,,
001Hr000028ZdXI,"Montville Township, OH",Ohio,Municipality,Mihir Shah,12966,Open Opportunity,Tier 2,1.0,41.0925,-81.8443,3948f5c7-6641-4a06-9fd8-e6f2effba8de,Open,Initial Interest,Top of Funnel,Sydney Ireland,2/11/2026,2/4/2026,,,6,2026-05-14,2,,4,,,,,,
001Hr000028ZdXN,"City Of Dover, OH",Ohio,Municipality,Mihir Shah,13023,,Tier 2,1.0,40.5206,-81.474,61f513f4-0afd-4b5c-aebe-41a80a7bb9e1,,,,,,,,,2,2026-01-30,2,,,,,,,,
001Hr000028ZdXO,"Township Of Violet, OH",Ohio,Municipality,Mihir Shah,47116,,Tier 1,1.5,39.8987,-82.7563,9d454996-0e40-4735-80d8-aed5f3023e03,,,,,,,,,2,2026-03-09,1,1,,,,,,,
001Hr000028ZdXS,"City Of West Carrollton, OH",Ohio,Municipality,Ali Cohen,13012,,Tier 2,1.0,39.6723,-84.2522,7a770a86-b0f8-43a0-be33-b2c2a83e356f,,,,,,,,,1,2026-03-02,1,,,,,,,,
001Hr000028ZdXd,"Township Of Bainbridge, OH",Ohio,Municipality,Mihir Shah,12961,,Tier 2,1.0,41.3765,-81.3619,f19ae327-1ae1-41a7-8635-ae73b85a5e77,,,,,,,,,2,2026-05-19,,,2,,,,,,
001Hr000028ZdXi,"City Of New Franklin, OH",Ohio,Municipality,Ali Cohen,13798,,Tier 2,1.0,40.9417,-81.5415,2f1a9b7b-a3b2-4d33-80e6-c54db6e2ef2c,,,,,,,,,9,2026-04-15,6,,,,,,3,,
001Hr000028ZdXm,"City Of Bexley, OH",Ohio,Municipality,Mihir Shah,13681,,Tier 2,1.0,39.969,-82.9377,31c77781-80fa-475c-88d3-124bcaae3a6c,,,,,,,,,13,2026-04-09,12,,,,,,1,,
001Hr000028ZdXo,"City Of Grove City, OH",Ohio,Municipality,Mihir Shah,41787,Implementation,Tier 1,1.5,39.8822,-83.0935,837e7989-475e-4834-9eb2-ae4ce0fb65e2,Closed Won,,,Emily Murnane,12/16/2025,11/25/2025,"$60,000",,2,2025-07-16,,,,2,,,,,
001Hr000028ZdXs,"Township Of Prairie, OH",Ohio,Municipality,Ali Cohen,17028,,Tier 2,1.0,40.0117,-83.7123,764c8cc5-67a7-48ec-baa3-f843fc87805b,,,,,,,,,,,,,,,,,,,
001Hr000028ZdY1,"City Of Brecksville, OH",Ohio,Municipality,Mihir Shah,13539,,Tier 2,1.0,41.3198,-81.6268,e62f0744-6900-4c29-8feb-4f6315f375af,,,,,,,,,8,2025-09-16,8,,,,,,,,
001Hr000028ZdYB,"City Of Warrensville Heights, OH",Ohio,Municipality,Mihir Shah,13562,,Tier 2,1.0,41.4323,-81.5103,4c81eabb-875d-4cf8-8e5a-59168af68cd5,,,,,,,,,10,2026-04-13,10,,,,,,,,
001Hr000028ZdYG,"City Of Worthington, OH",Ohio,Municipality,Mihir Shah,14564,Nurture,Tier 2,1.0,40.0931,-83.018,3fa2347f-d890-4a5b-be95-f0edeb450d66,Closed Lost,,,Granger West,9/30/2024,1/5/2025,,,9,2026-05-14,6,,3,,,,,,
001Hr000028ZdYL,"Olmsted Township, OH",Ohio,Municipality,Mihir Shah,14406,Recent Competitor Purchase,Tier 2,1.0,41.3728,-81.9262,85905e44-8927-4bcb-af17-b3fb2194f5f1,Closed Lost,,,Asher Rosenfeld,,1/5/2025,,,3,2025-11-24,3,,,,,,,,
001Hr000028ZdYX,"City Of Lima, OH",Ohio,Municipality,Ali Cohen,35868,Open Opportunity,Tier 1,1.5,40.7426,-84.1052,3a780903-d73b-4d3e-aa1a-27bb61c2052f,Open,Initial Interest,Top of Funnel,Emily Murnane,,1/14/2026,,,3,2026-01-14,1,,,2,,,,,
001Hr000028ZdYY,"Township Of Beavercreek, OH",Ohio,Municipality,Mihir Shah,56132,Implementation,Tier S,2.0,39.7257,-84.0379,47f898db-107b-49d0-ab09-c644ffc5e2f6,Closed Won,,,Leila Assil,8/21/2025,7/30/2025,"$17,500",,17,2025-08-20,,17,,,,,,,
001Hr000028ZdYc,"City Of Parma Heights, OH",Ohio,Municipality,Mihir Shah,20543,,Tier 2,1.0,41.3901,-81.7596,7e5b7d27-75c8-4d95-a1b3-2fe7a8bf20a2,,,,,,,,,17,2026-04-22,17,,,,,,,,
001Hr000028ZdYv,"City Of Ashland, OH",Ohio,Municipality,Mihir Shah,19282,Nurture,Tier 2,1.0,40.8687,-82.3182,c860182d-357c-4337-87df-9a3e4bca1047,Closed Lost,,,Asher Rosenfeld,,1/5/2025,,,9,2026-04-22,9,,,,,,,,
001Hr000028ZdYw,"Township Of Painesville, OH",Ohio,Municipality,Ali Cohen,20375,Open Opportunity,Tier 2,1.0,41.7245,-81.2457,58f9f6ac-d575-4ba4-9ca0-e8e9990073ce,Open,Initial Interest,Top of Funnel,Asher Rosenfeld,,1/5/2025,,,1,2025-09-18,1,,,,,,,,
001Hr000028ZdZ4,"City Of Defiance, OH",Ohio,Municipality,Mihir Shah,16971,,Tier 2,1.0,41.2845,-84.3558,d93d6c4a-6220-4abc-a4fa-776f207500ae,,,,,,,,,14,2026-03-10,14,,,,,,,,
001Hr000028ZdZ6,"City Of Green, OH",Ohio,Municipality,Mihir Shah,27337,,Tier 1,1.5,40.9459,-81.4832,9fba6b75-9dc8-4813-819d-a0daa7d391eb,,,,,,,,,11,2026-04-02,1,10,,,,,,,
001Hr000028ZdZ7,"Township Of West Chester, OH",Ohio,Municipality,Mihir Shah,64939,,Tier S,2.0,39.3321,-84.4173,5638ca6c-e6d5-4b2e-a8ba-671d11069aba,,,,,,,,,7,2026-05-13,,,7,,,,,,
001Hr000028ZdZ8,"Township Of Union, OH",Ohio,Municipality,Ali Cohen,2292,,Tier 3,0.75,40.4349,-82.2366,24676665-c621-4375-aa9f-4698e6d7079f,,,,,,,,,,,,,,,,,,,
001Hr000028ZdZ9,"City Of Tallmadge, OH",Ohio,Municipality,Ali Cohen,18305,,Tier 2,1.0,41.1014,-81.4418,91c732ea-4191-4224-98c9-1142cf629031,,,,,,,,,1,2025-10-09,1,,,,,,,,
001Hr000028ZdZB,"Jackson County, OH",Ohio,County,Mihir Shah,,,Tier 3,0.75,39.006,-82.6483,01a57288-6146-4458-bc40-a5552816cb8f,,,,,,,,,1,2025-09-30,1,,,,,,,,
001Hr000028ZdZE,"City Of Ashtabula, OH",Ohio,Municipality,Ali Cohen,17933,Nurture,Tier 2,1.0,41.8651,-80.7898,7925abb9-1a1b-47dd-9aa4-1c90b79845cd,Closed Lost,,,Granger West,10/18/2024,1/5/2025,,,5,2026-02-10,5,,,,,,,,
001Hr000028ZdZF,"City Of Fairborn, OH",Ohio,Municipality,Mihir Shah,34620,Open Opportunity,Tier 1,1.5,39.8209,-84.0194,cd8dbc54-937e-491b-80e3-e32747d8b4f2,Open,Initial Interest,Top of Funnel,Mihir Shah,,5/15/2026,,,44,2026-05-19,19,14,11,,,,,,
001Hr000028ZdZQ,"City Of Elyria, OH",Ohio,Municipality,Mihir Shah,52816,,Tier S,2.0,41.3684,-82.1076,17380fba-a69a-4d1e-bc5a-6238f29c73db,,,,,,,,,37,2026-05-19,28,,9,,,,,,
001Hr000028ZdZU,"City Of Stow, OH",Ohio,Municipality,Ali Cohen,34342,,Tier 1,1.5,41.1729,-81.4389,4424b30d-2317-4ec6-9bad-0f9c299d57b0,,,,,,,,,1,2026-03-05,1,,,,,,,,
001Hr000028ZdZx,"City Of Miamisburg, OH",Ohio,Municipality,Mihir Shah,19790,,Tier 2,1.0,39.6417,-84.2879,562f8d4c-45fa-4b6c-9c5a-a5c7acab828f,,,,,,,,,10,2026-02-20,10,,,,,,,,
001Hr000028Zda2,"City Of Forest Park, OH",Ohio,Municipality,Mihir Shah,19971,Nurture,Tier 2,1.0,39.2903,-84.5041,e37fb34f-656a-4e0e-9c06-c313699798fc,Closed Lost,,,Asher Rosenfeld,,1/5/2025,,,10,2025-11-26,10,,,,,,,,
001Hr000028Zda7,"City Of Oregon, OH",Ohio,Municipality,Ali Cohen,19865,,Tier 2,1.0,41.6733,-83.443,1be228c9-2d68-44c2-809e-9002d98af482,,,,,,,,,15,2026-04-24,15,,,,,,,,
001Hr000028ZdaR,"City Of Medina, OH",Ohio,Municipality,Mihir Shah,25934,Implementation,Tier 1,1.5,41.1432,-81.8552,805e0ea5-7759-4e43-a074-99bb7040b3fc,Closed Won,,,Emily Murnane,3/24/2026,1/4/2025,"$35,000",,7,2026-02-02,6,,,1,,,,,
001Hr000028ZdaW,"City Of Xenia, OH",Ohio,Municipality,Mihir Shah,25463,Open Opportunity,Tier 1,1.5,39.6848,-83.9297,119c03c5-430a-4c16-adaf-38a9dd6fb5ef,Open,Initial Interest,Top of Funnel,Emily Murnane,,8/28/2025,,,23,2025-12-30,23,,,,,,,,
001Hr000028Zdag,"City Of Wooster, OH",Ohio,Municipality,Mihir Shah,26751,,Tier 1,1.5,40.7975,-81.946,403f861d-3a3b-4b25-92b8-2a4dac588f1a,,,,,,,,,12,2025-12-18,12,,,,,,,,
001Hr000028Zdai,"City Of Hamilton, OH",Ohio,Municipality,Ali Cohen,62947,,Tier S,2.0,39.3989,-84.5588,a9630b19-780c-4fa5-8186-1015efb48554,,,,,,,,,43,2026-04-27,19,24,,,,,,,
001Hr000028Zdal,"City Of Perrysburg, OH",Ohio,Municipality,Mihir Shah,25114,,Tier 1,1.5,41.557,-83.6272,45a5aebe-8032-498a-abec-5a8f03226468,,,,,,,,,13,2026-01-30,11,,,2,,,,,
001Hr000028Zdaq,"City Of Willoughby, OH",Ohio,Municipality,Mihir Shah,23898,,Tier 2,1.0,41.6398,-81.4065,ea96df62-2c3d-45cb-8c11-2bfddb160d71,,,,,,,,,33,2026-04-21,33,,,,,,,,
001Hr000028ZdbG,"Champaign County, OH",Ohio,County,Ryan Minter,38845,Nurture,Tier 1,1.5,40.1026,-83.8049,7dc0945c-51f3-43c4-b06d-2bcec3d66257,Closed Lost,,,Ali Cohen,2/17/2026,2/6/2026,,,17,2026-04-15,7,10,,,,,,,
001Hr000028ZdbK,"City Of Kent, OH",Ohio,Municipality,Mihir Shah,27912,,Tier 1,1.5,41.1537,-81.3579,e74d3d72-35fc-45a3-9e1c-e157b4bcad5b,,,,,,,,,3,2026-04-24,3,,,,,,,,
001Hr000028Zdbe,"City Of Centerville, OH",Ohio,Municipality,Mihir Shah,24729,Open Opportunity,Tier 2,1.0,39.6284,-84.1594,3a4e3b90-e780-4434-bc42-58580333449d,Open,Initial Interest,Top of Funnel,Sydney Ireland,2/6/2026,2/6/2026,,,12,2026-05-13,6,,3,3,,,,,
001Hr000028Zdbk,"City Of Gahanna, OH",Ohio,Municipality,Ali Cohen,35440,,Tier 1,1.5,40.0192,-82.8793,d89b4e12-5867-4937-b90f-28bc95372985,,,,,,,,,2,2026-04-08,2,,,,,,,,
001Hr000028Zdbo,"City Of Massillon, OH",Ohio,Municipality,Ali Cohen,32231,,Tier 1,1.5,40.7967,-81.5215,ff1c4d57-cef4-4284-8c94-8e2bd2739248,,,,,,,,,2,2026-01-30,2,,,,,,,,
001Hr000028Zdc3,"City Of Brunswick, OH",Ohio,Municipality,Mihir Shah,35340,,Tier 1,1.5,41.2381,-81.8418,b610dc5c-4209-4f75-9bf5-468c85e603ab,,,,,,,,,3,2026-01-30,2,,,1,,,,,
001Hr000028Zdc9,"City Of Huber Heights, OH",Ohio,Municipality,Mihir Shah,43272,Open Opportunity,Tier 1,1.5,39.8439,-84.1247,ffe782f7-6636-49d4-bac1-c8e001df26aa,Open,Initial Interest,Top of Funnel,Asher Rosenfeld,,1/5/2025,,,8,2026-02-17,8,,,,,,,,
001Hr000028ZdcD,"City Of Hilliard, OH",Ohio,Municipality,Ali Cohen,36892,,Tier 1,1.5,40.0334,-83.1582,2262f6b5-62be-4fce-b323-71334d77fa02,,,,,,,,,3,2025-07-29,,3,,,,,,,
001Hr000028ZdcI,"City Of Marion, OH",Ohio,Municipality,Mihir Shah,35868,,Tier 1,1.5,40.5887,-83.1285,d46da923-0116-4826-ae01-d8c68f9c5f76,,,,,,,,,7,2026-04-24,6,1,,,,,,,
001Hr000028ZdcK,"Township Of Miami, OH",Ohio,Municipality,Mihir Shah,51977,Open Opportunity,Tier S,2.0,39.1941,-84.2375,81a19eea-9cc6-4e15-993a-2d429dc9a0dc,Open,Initial Interest,Top of Funnel,Leila Assil,,2/4/2025,,,7,2025-12-18,7,,,,,,,,
001Hr000028ZdcS,"City Of Warren, OH",Ohio,Municipality,Ali Cohen,39020,Nurture,Tier 1,1.5,41.2376,-80.8184,90edb4ad-2129-4e70-94b3-bd41350091b7,Closed Lost,,,Joe del Rosario,7/10/2025,1/5/2025,,,10,2026-04-27,10,,,,,,,,
001Hr000028ZdcX,"City Of Beavercreek, OH",Ohio,Municipality,Mihir Shah,46636,,Tier 1,1.5,39.7092,-84.0633,75f52e86-444e-4576-8c2e-58b53bd20c98,,,,,,,,,4,2026-02-02,3,,,1,,,,,
001Hr000028Zdcc,"Township Of Miami, OH",Ohio,Municipality,Mihir Shah,44133,,Tier 1,1.5,39.1941,-84.2375,224814a2-25d4-4223-9972-62ebabe48d8a,,,,,,,,,5,2025-07-16,,5,,,,,,,
001Hr000028Zdd6,"Township Of Union, OH",Ohio,Municipality,Ali Cohen,49913,Nurture,Tier 1,1.5,40.4349,-82.2366,9ed4396d-5f90-47fd-bccc-fdbb1afe29a6,Closed Lost,,,Granger West,10/28/2024,1/5/2025,,,2,2025-09-19,2,,,,,,,,
001Hr000028ZddB,"City Of Delaware, OH",Ohio,Municipality,Ali Cohen,42814,Nurture,Tier 1,1.5,40.2987,-83.068,711a454f-ef36-4ffd-a75a-123c63204c11,Closed Lost,,,Asher Rosenfeld,,1/5/2025,,,22,2026-03-24,22,,,,,,,,
001Hr000028ZddL,"City Of Mansfield, OH",Ohio,Municipality,Mihir Shah,47669,,Tier 1,1.5,40.7585,-82.5141,566ce340-0561-404a-bed0-c1bd4e7c6da6,,,,,,,,,12,2026-03-23,7,,,5,,,,,
001Hr000028ZddS,"City Of Springfield, OH",Ohio,Municipality,Ali Cohen,58763,,Tier S,2.0,39.9234,-83.8099,d9e47f59-a38b-4ba9-aaaf-39fed0a3e531,,,,,,,,,4,2026-02-23,3,1,,,,,,,
001Hr000028Zddf,"Lake County, OH",Ohio,County,Mihir Shah,231842,Open Opportunity,Tier S,2.0,41.7704,-81.1704,c03e8176-9f22-4c0c-9e46-952779fdd9b7,Open,Initial Interest,Top of Funnel,Asher Rosenfeld,,1/5/2025,,,5,2025-10-06,5,,,,,,,,
001Hr000028ZdeB,"City Of Lakewood, OH",Ohio,Municipality,Mihir Shah,50104,Open Opportunity,Tier S,2.0,41.482,-81.7982,3fb75195-4661-4003-bdc2-15ebb7532a23,Open,Initial Interest,Top of Funnel,Emily Murnane,12/16/2025,11/17/2025,,,8,2026-05-13,4,2,2,,,,,,
001Hr000028ZdfX,"Bath Township (Greene County), OH",Ohio,Municipality,Mihir Shah,39374,Open Opportunity,Tier 1,1.5,39.8078,-84.0379,06883150-5965-45cd-b341-eca4833b3f94,Open,Initial Interest,Top of Funnel,Granger West,12/12/2024,1/5/2025,,,1,2025-11-21,1,,,,,,,,
001Hr000028ZdgX,"Township Of Bath, OH",Ohio,Municipality,Ali Cohen,9959,,Tier 3,0.75,41.1568,-81.6353,9cbf9350-9013-4e75-ace5-06419e01fb8a,,,,,,,,,7,2026-03-09,7,,,,,,,,
001Hr000028Zdgg,"Hocking County, OH",Ohio,County,Ali Cohen,27938,Open Opportunity,Tier 1,1.5,39.4909,-82.4753,df476c48-3bd0-478a-a86e-a00c997ded7b,Open,Sales Qualified,Mid Funnel,Emily Murnane,2/19/2026,10/8/2025,,,9,2026-02-18,9,,,,,,,,
001Hr000028ZdiB,"City Of Youngstown, OH",Ohio,Municipality,Ali Cohen,60270,,Tier S,2.0,41.0999,-80.6515,0d0b2e1b-10ad-451e-bd5f-fccb6689d3b4,,,,,,,,,10,2026-03-09,3,7,,,,,,,
001Hr000028ZdiL,"City Of Cuyahoga Falls, OH",Ohio,Municipality,Ali Cohen,50810,Open Opportunity,Tier S,2.0,41.1362,-81.4828,e9516f3e-ac11-42f2-ad28-772b14ebdf88,Open,Initial Interest,Top of Funnel,Emily Murnane,,10/30/2025,,,36,2026-01-14,36,,,,,,,,
001Hr000028ZdiW,"Pickaway County, OH",Ohio,County,Mihir Shah,61086,,Tier S,2.0,39.6878,-82.9932,afb526ce-fcb6-4a04-8d01-ed6e8598123e,,,,,,,,,10,2025-12-18,2,8,,,,,,,
001Hr000028Zdj5,"Clinton County, OH",Ohio,County,Mihir Shah,,,Tier 3,0.75,39.4067,-83.8473,31aeb9ec-bb82-4d0a-89b6-70fc85ecc58d,,,,,,,,,2,2026-02-20,2,,,,,,,,
001Hr000028Zdj6,"Medina County, OH",Ohio,County,Mihir Shah,184042,Open Opportunity,Tier S,2.0,41.0801,-81.9535,aa12ec4f-4028-4181-871d-ed6a47318230,Open,Meeting Booked,Top of Funnel,Emily Murnane,3/2/2026,2/23/2026,,Yes,4,2026-02-23,3,1,,,,,,,
001Hr000028Zdju,"Mahoning County, OH",Ohio,County,Ali Cohen,225596,,Tier S,2.0,40.9872,-80.7214,30b0bafb-9962-456f-a533-a19b07399470,,,,,,,,,10,2026-03-04,10,,,,,,,,
001Hr000028Zdk7,"Ross County, OH",Ohio,County,Mihir Shah,76000,,Tier S,2.0,39.3584,-82.9932,d5bad018-9585-4900-9bfd-33a536b46e6f,,,,,,,,,5,2026-03-27,5,,,,,,,,
001Hr000028ZdlA,"Logan County, OH",Ohio,County,Mihir Shah,46057,Open Opportunity,Tier 1,1.5,40.39,-83.8473,fda4aa0b-4499-453e-bd89-544f1f15e871,,,,,,,,,15,2026-04-15,6,9,,,,,,,
001Hr000028Zdmr,"Delaware County, OH",Ohio,County,Mihir Shah,231636,,Tier S,2.0,40.3033,-83.0361,830e2f5f-bcc5-46d0-9fb2-6298998028f7,,,,,,,,,2,2025-09-09,,2,,,,,,,
001Hr000028Zdn1,"Wayne County, OH",Ohio,County,Mihir Shah,116510,Open Opportunity,Tier S,2.0,40.7589,-81.9535,567b1ffe-e2a1-4544-b62d-061b0bd096b4,Open,Meeting Booked,Top of Funnel,Mihir Shah,5/21/2026,5/13/2026,,,12,2026-05-14,8,,4,,,,,,
001Hr000028ZdnG,"Clark County, OH",Ohio,County,Mihir Shah,,,Tier 3,0.75,39.8912,-83.6774,82f472c7-64e9-41e1-bdc4-37f6acb728dc,,,,,,,,,15,2026-04-20,11,4,,,,,,,
001Hr000028Zdna,"Wood County, OH",Ohio,County,Mihir Shah,131592,,Tier S,2.0,41.3478,-83.6774,2a27b7d2-c1ab-4061-9275-8112fcbaa99a,,,,,,,,,12,2026-04-13,10,2,,,,,,,
001Hr000028Zdnf,"Fairfield County, OH",Ohio,County,Ali Cohen,167762,,Tier S,2.0,39.8305,-82.6483,514883df-5146-49a8-b18a-1c8dd9fd3ba2,,,,,,,,,4,2026-04-07,3,1,,,,,,,
001Hr000028Zdpb,"Warren County, OH",Ohio,County,Ali Cohen,252148,,Tier S,2.0,39.4241,-84.1857,4ea25c2a-0265-437f-95f7-be8968d86887,,,,,,,,,22,2025-10-13,2,20,,,,,,,
001Hr000028ZdtA,"Township Of Jefferson, OH (Montgomery County)",Ohio,Municipality,Ali Cohen,5837,Open Opportunity,Tier 3,0.75,39.762,-84.3542,2e9dc2f1-069e-4442-8b5a-bc161c015ce9,Open,Demo,Mid Funnel,Ali Cohen,2/13/2026,2/5/2026,,,9,2025-08-12,,9,,,,,,,
001Hr000028Zdv0,"Austintown Township, OH",Ohio,Municipality,Ali Cohen,36000,,Tier 1,1.5,41.0889,-80.7436,e48e9abf-185b-4d46-8028-b99f50ab4e06,,,,,,,,,2,2025-09-25,,,,2,,,,,
001Hr000028Zdv5,"Village Of Chagrin Falls, OH",Ohio,Municipality,Ali Cohen,4129,Nurture,Tier 3,0.75,41.4299,-81.3911,397f1d26-5e92-4858-a693-21981b793021,Closed Lost,,,Granger West,11/26/2024,1/5/2025,"$28,000",,,,,,,,,,,,
001Hr000028Ze3o,"Township Of Monroe, OH (Claremont County)",Ohio,Municipality,Mihir Shah,7618,,Tier 3,0.75,,,4f1cda93-aa55-45ce-88d4-0ba1283119f5,,,,,,,,,2,2026-05-07,,,2,,,,,,
001Hr000028Ze3t,"Harrison Township (Pickaway County), OH",Ohio,Municipality,Ali Cohen,8235,Open Opportunity,Tier 3,0.75,39.7481,-82.9717,b0b3fdcb-4032-471f-be40-025cad15812c,Open,Meeting Booked,Top of Funnel,Emily Murnane,3/19/2026,3/9/2026,,,11,2026-04-27,11,,,,,,,,
001Hr000028Ze3y,"Township Of Butler, OH",Ohio,Municipality,Mihir Shah,8242,,Tier 3,0.75,39.8587,-84.199,d0299937-df94-4e2a-84d0-4bc7fc510b4e,,,,,,,,,4,2025-08-04,,4,,,,,,,
001Hr000028Ze43,"Township Of German, OH",Ohio,Municipality,Mihir Shah,8722,Nurture,Tier 3,0.75,39.6211,-84.4173,ad9d2561-23d3-4102-b628-e7cef3eaf5f9,Closed Lost,,,Ali Cohen,3/2/2026,2/4/2026,,,2,2026-02-12,,,,,,2,,,
001Hr000028Ze4D,"Perry Township (Lake County), OH",Ohio,Municipality,Ali Cohen,8859,,Tier 3,0.75,41.8089,-81.0707,b9120e4f-bce0-4886-a9c0-121fa03e3416,,,,,,,,,4,2025-10-24,4,,,,,,,,
001Hr000028Ze4N,"Sharon Township (Richland County), OH",Ohio,Municipality,Mihir Shah,8988,,Tier 3,0.75,40.8577,-82.6807,67694579-893d-47b6-837a-565b8d501c4b,,,,,,,,,,,,,,,,,,,
001Hr000028Ze4S,"Lawrence Township (Stark County), OH",Ohio,Municipality,Mihir Shah,13546,,Tier 2,1.0,40.873,-81.5816,92b233a2-5969-4929-8070-6d283226abf6,,,,,,,,,2,2025-09-24,2,,,,,,,,
001Hr000028Ze4X,"Township Of Springfield, OH",Ohio,Municipality,Ali Cohen,14076,,Tier 2,1.0,39.9255,-82.0734,739beaf4-558b-451f-a2d7-c3e8e1023eeb,,,,,,,,,7,2025-10-06,7,,,,,,,,
001Hr000028Ze4c,"Township Of Madison (Lake County), OH",Ohio,Municipality,Ali Cohen,18454,,Tier 2,1.0,41.7712,-81.0498,50da671b-5536-4a2f-a581-98fbed752a34,,,,,,,,,,,,,,,,,,,
001Hr000028Ze4h,"Concord Township (Lake County), OH",Ohio,Municipality,Mihir Shah,19121,Nurture,Tier 2,1.0,41.6746,-81.2243,ddf8309a-be82-41c5-b0c9-ce6420cdcd8d,Closed Lost,,,Ali Cohen,2/12/2026,2/4/2026,,,4,2026-02-12,,,,,1,3,,,
001Hr000028Ze4m,"Township Of Lake, OH",Ohio,Municipality,Mihir Shah,30208,,Tier 1,1.5,40.937,-81.3619,4d86932f-1590-4fec-b2bf-76c649952dde,,,,,,,,,,,,,,,,,,,
001Hr000028Ze4w,"Township Of Fairfield, OH",Ohio,Municipality,Ali Cohen,22651,Open Opportunity,Tier 2,1.0,39.3976,-84.5224,2d3b0f80-002f-49a2-973b-a50a501f79ff,Open,Initial Interest,Top of Funnel,Emily Murnane,,9/17/2025,,,8,2025-11-07,8,,,,,,,,
001Hr000028Ze5z,"Township Of Springfield, OH",Ohio,Municipality,Ali Cohen,35537,,Tier 1,1.5,39.9255,-82.0734,d79399bf-daf2-403b-a301-c6261e8c2087,,,,,,,,,,,,,,,,,,,
001Hr000028Ze64,"Township Of Liberty, OH",Ohio,Municipality,Ali Cohen,33554,,Tier 1,1.5,39.4015,-84.4094,1bdf3843-f253-4840-8617-b614a8f15758,,,,,,,,,1,2025-05-21,,,,1,,,,,
001Hr000028Ze6J,"Township Of Harrison, OH",Ohio,Municipality,Mihir Shah,14521,,Tier 2,1.0,39.2668,-84.7942,c4f323d5-2200-4e97-965d-09ac964c9d5b,,,,,,,,,3,2025-09-23,3,,,,,,,,
001Hr000028Ze6d,"Township Of Perry, OH",Ohio,Municipality,Mihir Shah,16201,,Tier 2,1.0,38.4923,-82.5943,da2566c5-d2cf-406b-804d-96a8941f904c,,,,,,,,,2,2025-09-18,2,,,,,,,,
001Hr000028Ze6i,"Township Of Jefferson, OH (Franklin County)",Ohio,Municipality,Ali Cohen,14199,Open Opportunity,Tier 2,1.0,40.0145,-82.8102,96979ee2-c817-4f78-ae8e-d43ca01c19c1,Open,Proposal,Mid Funnel,Emily Murnane,3/26/2026,3/17/2026,"$17,000",,1,2026-03-13,1,,,,,,,,
001Hr000028Ze6s,"Township Of Springfield, OH",Ohio,Municipality,Ali Cohen,27055,Open Opportunity,Tier 1,1.5,39.9255,-82.0734,09bf28b7-179b-425d-b42c-9995d5c51418,Open,Initial Interest,Top of Funnel,Asher Rosenfeld,,1/5/2025,,,8,2026-04-23,8,,,,,,,,
001Hr000028Ze72,"Perry Township (Stark County), OH",Ohio,Municipality,Ali Cohen,28278,,Tier 1,1.5,40.7737,-81.4609,b9120e4f-bce0-4886-a9c0-121fa03e3416,,,,,,,,,13,2026-04-13,13,,,,,,,,
001Hr000028Ze77,"Township Of Liberty, OH",Ohio,Municipality,Ali Cohen,44099,,Tier 1,1.5,39.4015,-84.4094,c2f6d7b8-fb1e-44bd-898d-034c66ceaf91,,,,,,,,,2,2025-05-22,,,,2,,,,,
001Hr000028a3l8,"Village Of Moreland Hills, OH",Ohio,Municipality,Mihir Shah,3425,Cold,Tier 3,0.75,41.4478,-81.4276,80fb0c82-5293-4788-82d0-0398b15985ae,,,,,,,,,,,,,,,,,,,
001Hr000028a4Nu,"Village of Glenwillow, OH",Ohio,Municipality,Ali Cohen,977,Cold,Tier 3,0.75,41.3569,-81.4699,d1dfe48a-6573-456e-8e8a-622dd5530a42,,,,,,,,,4,2025-11-14,4,,,,,,,,
001cv000006tdf2,"Village Of Bethel, OH",Ohio,Municipality,Mihir Shah,2635,,Tier 3,0.75,38.9637,-84.0808,682a55a0-164a-4095-9b19-4b5199b8f822,,,,,,,,,2,2025-10-08,2,,,,,,,,
001cv000006tezb,"Village Of New Lexington, OH",Ohio,Municipality,Mihir Shah,4434,,Tier 3,0.75,39.714,-82.2085,e32449a0-9ed7-4e8e-af73-79a5b80f01e3,,,,,,,,,4,2025-10-08,4,,,,,,,,
001cv000006wU8r,"Village Of Northfield, OH",Ohio,Municipality,Mihir Shah,3522,,Tier 3,0.75,41.3451,-81.5285,7732a8fd-39e8-4be6-8528-3d7e5434912c,,,,,,,,,1,2025-10-08,1,,,,,,,,
001cv000007apZb,"Village Of Hebron, OH",Ohio,Municipality,Mihir Shah,2355,Open Opportunity,Tier 3,0.75,39.9617,-82.4913,24df2768-39d2-4854-b110-0e8716f92812,Open,Initial Interest,Top of Funnel,Emily Murnane,,10/8/2025,,,7,2026-05-19,5,,2,,,,,,
001cv000007cYUX,"Township Of Washington, OH",Ohio,Municipality,Ali Cohen,62008,,Tier S,2.0,39.6162,-82.8934,6a839481-3935-40b6-b870-5a4d44ec3d89,,,,,,,,,,,,,,,,,,,
001cv000007iFPN,"Village Of Delta, OH",Ohio,Municipality,Ali Cohen,3340,Nurture,Tier 3,0.75,41.5737,-84.0052,cbd93a90-c52f-40d1-89c3-a3bd1c9a1f27,Closed Lost,,,Emily Murnane,10/6/2025,10/1/2025,,,3,2025-10-06,3,,,,,,,,
001cv00000AuWNf,"Township Of Delaware, OH",Ohio,Municipality,Ali Cohen,2001,,Tier 3,0.75,40.2987,-83.068,c1ccd5a4-d66c-4779-8ea4-c1839ad6697a,,,,,,,,,3,2025-12-29,3,,,,,,,,
001cv00000AuWNp,"Township Of Clark, OH",Ohio,Municipality,Ali Cohen,2005,,Tier 3,0.75,40.4826,-81.7568,6ac24cca-8f70-44c0-baa4-5905279d5604,,,,,,,,,,,,,,,,,,,
001cv00000AuWOL,"Village Of Walton Hills, OH",Ohio,Municipality,Mihir Shah,2015,,Tier 3,0.75,41.3656,-81.5612,3ba8d50d-0def-408c-a9dc-105df8549119,,,,,,,,,2,2025-10-06,2,,,,,,,,
001cv00000AuWOQ,"Township Of Liberty, OH",Ohio,Municipality,Ali Cohen,2016,,Tier 3,0.75,39.4015,-84.4094,4dc4c695-5742-40f1-ac91-a65c315bdaab,,,,,,,,,,,,,,,,,,,
001cv00000AuWOX,"Township Of Prospect, OH",Ohio,Municipality,Ali Cohen,2018,,Tier 3,0.75,40.4503,-83.1885,180e9762-5918-447b-96f3-f46aa004a52d,,,,,,,,,,,,,,,,,,,
001cv00000AuWOd,"Township Of Adams, OH",Ohio,Municipality,Mihir Shah,2020,,Tier 3,0.75,39.5291,-81.5377,702493c5-dac4-4a44-9ff6-da9fba6e37ac,,,,,,,,,,,,,,,,,,,
001cv00000AuWOu,"Township Of Valley, OH",Ohio,Municipality,Mihir Shah,2024,,Tier 3,0.75,40.8656,-80.9481,b73dbf31-b828-40ac-93b5-2c3bb7a07ae0,,,,,,,,,,,,,,,,,,,
001cv00000AuWP2,"Township Of Amanda, OH",Ohio,Municipality,Ali Cohen,2026,,Tier 3,0.75,39.6495,-82.7443,08f41e59-9bba-4b38-a4ab-c9fc646706aa,,,,,,,,,,,,,,,,,,,
001cv00000AuWPR,"Township Of Wayne, OH",Ohio,Municipality,Ali Cohen,2032,,Tier 3,0.75,39.5308,-84.0858,a6c74b59-990b-4a3e-a31b-af709167b5ec,,,,,,,,,1,2025-07-09,,1,,,,,,,
001cv00000AuWPd,"Township Of Chester, OH",Ohio,Municipality,Ali Cohen,2034,,Tier 3,0.75,41.5354,-81.3619,ab27a8c0-1cef-4627-95f5-ff3057c01546,,,,,,,,,,,,,,,,,,,
001cv00000AuWQ9,"Township Of Lincoln, OH",Ohio,Municipality,Mihir Shah,2040,,Tier 3,0.75,40.4741,-82.8425,04eeae98-a649-49b6-bebe-d336c699eadf,,,,,,,,,,,,,,,,,,,
001cv00000AuWQF,"Township Of Brown, OH",Ohio,Municipality,Mihir Shah,2041,,Tier 3,0.75,40.1374,-84.0802,03added9-297d-450a-99dc-c0f1fd7ee37a,,,,,,,,,,,,,,,,,,,
001cv00000AuWQH,"Township Of Buckskin, OH",Ohio,Municipality,Ali Cohen,2042,,Tier 3,0.75,39.3567,-83.3148,a8259581-c143-44c1-abef-5411d3873ef7,,,,,,,,,,,,,,,,,,,
001cv00000AuWQe,"Township Of Dublin, OH",Ohio,Municipality,Mihir Shah,2047,,Tier 3,0.75,40.1663,-83.1764,6b98f627-17ab-4c50-bd83-75e706cb786f,,,,,,,,,,,,,,,,,,,
001cv00000AuWQm,"Village Of Jamestown, OH",Ohio,Municipality,Ali Cohen,2051,,Tier 3,0.75,39.6581,-83.7349,259bdb6a-24a7-4658-ad9b-426e6b6202ff,,,,,,,,,6,2025-08-27,,6,,,,,,,
001cv00000AuWXM,"Township Of Pickaway, OH",Ohio,Municipality,Mihir Shah,2053,Nurture,Tier 3,0.75,39.5882,-82.9446,38cd69c2-f3aa-4104-8443-3a558dee5200,Closed Lost,,,Sydney Ireland,2/13/2026,2/5/2026,,,,,,,,,,,,,
001cv00000AuWXP,"Township Of Monterey, OH",Ohio,Municipality,Mihir Shah,2054,,Tier 3,0.75,39.1335,-84.0815,ba065a7b-f2ef-4474-80bf-3227ba70590c,,,,,,,,,,,,,,,,,,,
001cv00000AuWXZ,"Township Of Washington, OH",Ohio,Municipality,Ali Cohen,2056,,Tier 3,0.75,39.6162,-82.8934,647f861d-5726-4fc5-9bde-7b33bc16229f,,,,,,,,,,,,,,,,,,,
001cv00000AuWXj,"Township Of Richland, OH",Ohio,Municipality,Ali Cohen,2059,,Tier 3,0.75,40.7567,-82.5186,57c40fb0-cb8b-4cd6-b92c-3c487a3d8d76,,,,,,,,,,,,,,,,,,,
001cv00000AuWXw,"Township Of Mohican, OH",Ohio,Municipality,Mihir Shah,2065,,Tier 3,0.75,40.7552,-82.1931,14ba996e-3a7f-499e-ac67-a21235dd4202,,,,,,,,,,,,,,,,,,,
001cv00000AuWY2,"Village Of Elmwood Place, OH",Ohio,Municipality,Ali Cohen,2066,,Tier 3,0.75,39.1873,-84.488,a7021510-4a44-48f3-a710-32c11bab539a,,,,,,,,,8,2025-12-16,8,,,,,,,,
001cv00000AuWYJ,"Township Of Salem, OH",Ohio,Municipality,Ali Cohen,2071,,Tier 3,0.75,40.9009,-80.8568,2b2757df-ee63-40de-82a6-c2db013a5580,,,,,,,,,,,,,,,,,,,
001cv00000AuWYd,"Township Of Montgomery, OH",Ohio,Municipality,Ali Cohen,2076,,Tier 3,0.75,39.2281,-84.3541,9243873b-909b-4620-86df-0506a0ec075b,,,,,,,,,,,,,,,,,,,
001cv00000AuWYu,"Village Of Cardington, OH",Ohio,Municipality,Mihir Shah,2082,,Tier 3,0.75,40.5006,-82.8935,945e3882-6c0e-46f7-8a96-de0afa8a21a1,,,,,,,,,2,2025-10-07,2,,,,,,,,
001cv00000AuWYy,"Township Of Raccoon, OH",Ohio,Municipality,Ali Cohen,2083,,Tier 3,0.75,38.887,-82.4103,3a2272ca-9315-4329-a095-641f17c3badd,,,,,,,,,,,,,,,,,,,
001cv00000AuWZ5,"Township Of Union, OH",Ohio,Municipality,Ali Cohen,2086,,Tier 3,0.75,40.4349,-82.2366,ad57772c-b0e5-490a-adcf-4019b45eaecb,,,,,,,,,,,,,,,,,,,
001cv00000AuWZD,"Township Of Addison, OH",Ohio,Municipality,Ali Cohen,2090,,Tier 3,0.75,38.8726,-82.1931,97ad0e6b-63ac-44c3-a052-3a77e3f80646,,,,,,,,,,,,,,,,,,,
001cv00000AuWZY,"Village Of Utica, OH",Ohio,Municipality,Mihir Shah,2095,,Tier 3,0.75,40.2342,-82.4513,24185daa-1c48-4955-9947-d68b0526ed24,,,,,,,,,6,2025-08-27,,6,,,,,,,
001cv00000AuWZb,"Township Of Van Buren, OH",Ohio,Municipality,Mihir Shah,2096,,Tier 3,0.75,40.8497,-83.7412,27f2a4be-769e-4480-9e2c-6a76eb42b0d8,,,,,,,,,,,,,,,,,,,
001cv00000AuWZd,"Village Of Morrow, OH",Ohio,Municipality,Ali Cohen,2097,,Tier 3,0.75,39.3545,-84.1272,28d8dd90-1974-4be5-975f-c2d6af9f635f,,,,,,,,,2,2026-01-12,2,,,,,,,,
001cv00000AuWZk,"Township Of Ellsworth, OH",Ohio,Municipality,Mihir Shah,2100,,Tier 3,0.75,41.0242,-80.8573,c736d1aa-badc-40da-9849-42f3426461be,,,,,,,,,,,,,,,,,,,
001cv00000AuWZq,"Township Of Carroll, OH",Ohio,Municipality,Mihir Shah,2101,,Tier 3,0.75,39.799,-82.701,a10e4368-a3c9-4c66-9570-db8cec9c2252,,,,,,,,,,,,,,,,,,,
001cv00000AuWa0,"Township Of Morris, OH",Ohio,Municipality,Ali Cohen,2106,,Tier 3,0.75,40.4522,-82.4969,ad4b1de5-3bcb-4555-8519-4c18793ee8cf,,,,,,,,,,,,,,,,,,,
001cv00000AuWa1,"Township Of Gibson, OH",Ohio,Municipality,Mihir Shah,2106,,Tier 3,0.75,41.3845,-83.32,c5f8b568-1a7c-46b4-9721-4e6fe30ca2e4,,,,,,,,,,,,,,,,,,,
001cv00000AuWaC,"Village Of Brewster, OH",Ohio,Municipality,Mihir Shah,2109,,Tier 3,0.75,40.707,-81.5982,d1e29c93-1a38-4ca7-8e93-a0d2099e996f,,,,,,,,,2,2026-01-13,2,,,,,,,,
001cv00000AuWac,"Township Of Rushcreek, OH",Ohio,Municipality,Ali Cohen,2114,,Tier 3,0.75,40.4406,-83.6561,8a8ebe5f-02be-4c56-8bc1-d65940807209,,,,,,,,,,,,,,,,,,,
001cv00000AuWas,"Township Of Rutland, OH",Ohio,Municipality,Mihir Shah,2119,,Tier 3,0.75,39.0454,-82.1304,4e7da34e-ca38-4c65-8257-644b437e3f1d,,,,,,,,,,,,,,,,,,,
001cv00000AuWc9,"Township Of Weston, OH",Ohio,Municipality,Ali Cohen,2144,,Tier 3,0.75,41.3653,-83.8155,e10a818f-05e7-4060-b273-245894b3002e,,,,,,,,,,,,,,,,,,,
001cv00000AuWcS,"Township Of Franklin, OH",Ohio,Municipality,Mihir Shah,2149,,Tier 3,0.75,40.3315,-81.2188,e1f2d849-3c44-4485-9d81-67427aaed69a,,,,,,,,,,,,,,,,,,,
001cv00000AuWcW,"Village Of Columbus Grove, OH",Ohio,Municipality,Ali Cohen,2150,,Tier 3,0.75,40.9195,-84.0569,0ba36a5e-0691-4caf-96ba-23b2529b863b,,,,,,,,,,,,,,,,,,,
001cv00000AuWcc,"Village Of Creston, OH",Ohio,Municipality,Mihir Shah,2152,,Tier 3,0.75,40.987,-81.8938,726e23ed-b329-48a2-b336-e813a2c6b6bd,,,,,,,,,,,,,,,,,,,
001cv00000AuWcn,"Township Of Gorham, OH",Ohio,Municipality,Mihir Shah,2155,,Tier 3,0.75,41.6788,-84.2911,695613c2-ee3d-4f99-8336-aecab37f3ace,,,,,,,,,,,,,,,,,,,
001cv00000AuWco,"Township Of Springcreek, OH",Ohio,Municipality,Mihir Shah,2155,,Tier 3,0.75,40.1417,-84.1646,6e523425-704b-4db9-b27e-6a6a9e0fbd79,,,,,,,,,,,,,,,,,,,
001cv00000AuWd4,"Township Of Thompson, OH",Ohio,Municipality,Ali Cohen,2159,,Tier 3,0.75,41.6869,-81.0451,314c6073-a80c-4364-9c46-5de85584dc68,,,,,,,,,3,2025-07-03,,3,,,,,,,
001cv00000AuWd9,"Village Of South Bloomfield, OH",Ohio,Municipality,Mihir Shah,2161,,Tier 3,0.75,39.7146,-82.987,70c800b2-0968-4f39-8843-29245291865f,,,,,,,,,1,2026-01-13,1,,,,,,,,
001cv00000AuWdD,"Village Of Piketon, OH",Ohio,Municipality,Ali Cohen,2162,,Tier 3,0.75,39.0681,-83.0143,02cf5a14-ec74-4677-9ca8-8454483d756b,,,,,,,,,2,2025-10-06,2,,,,,,,,
001cv00000AuWdK,"Village Of Leipsic, OH",Ohio,Municipality,Mihir Shah,2165,,Tier 3,0.75,41.0984,-83.9847,1663d006-33fb-4ac6-ac0f-180aed47df68,,,,,,,,,1,2025-10-06,1,,,,,,,,
001cv00000AuWdS,"Village Of Spencerville, OH",Ohio,Municipality,Ali Cohen,2167,,Tier 3,0.75,40.7089,-84.3536,544b5b99-b71a-486e-afdc-3aab7a2ef72a,,,,,,,,,,,,,,,,,,,
001cv00000AuWdY,"Township Of Mary Ann, OH",Ohio,Municipality,Mihir Shah,2168,,Tier 3,0.75,40.1266,-82.3343,c6baabb0-0412-485e-a332-ddde6266a69c,,,,,,,,,,,,,,,,,,,
001cv00000AuWp4,"Township Of Bartlow, OH",Ohio,Municipality,Ali Cohen,2173,,Tier 3,0.75,41.2227,-83.9533,1e36acb8-4766-4dda-9798-ed63a572e667,,,,,,,,,,,,,,,,,,,
001cv00000AuWp7,"Township Of Troy, OH",Ohio,Municipality,Mihir Shah,2174,,Tier 3,0.75,41.4744,-83.443,9052673b-8bd4-408c-9345-aec61a2e085e,,,,,,,,,,,,,,,,,,,
001cv00000AuWpG,"Township Of Ridgefield, OH",Ohio,Municipality,Mihir Shah,2177,,Tier 3,0.75,39.5283,-84.1762,6c1c37ac-6c5f-4c6f-bfd8-f038fe85b9dd,,,,,,,,,,,,,,,,,,,
001cv00000AuWpP,"Township Of Westland, OH",Ohio,Municipality,Ali Cohen,2180,,Tier 3,0.75,39.5503,-81.8993,600dabc6-6a20-4abc-ac5b-558843511168,,,,,,,,,,,,,,,,,,,
001cv00000AuWpS,"Village Of Middleport, OH",Ohio,Municipality,Mihir Shah,2181,,Tier 3,0.75,39.0017,-82.0488,a9c09312-f5b0-4053-876c-9d883cc44e14,,,,,,,,,10,2026-04-14,10,,,,,,,,
001cv00000AuWq6,"Township Of Austinburg, OH",Ohio,Municipality,Mihir Shah,2191,,Tier 3,0.75,41.772,-80.8548,0606a156-e2dc-46d1-afc4-2c308f70fb4c,,,,,,,,,,,,,,,,,,,
001cv00000AuWqC,"Village Of Gambier, OH",Ohio,Municipality,Ali Cohen,2193,Nurture,Tier 3,0.75,40.3759,-82.3972,cdbb0765-ca17-4f80-b9c8-ac956b71b63a,Closed Lost,,,Emily Murnane,10/22/2025,10/17/2025,,,2,2025-10-17,2,,,,,,,,
001cv00000AuWqg,"Township Of Newark, OH",Ohio,Municipality,Mihir Shah,2203,,Tier 3,0.75,40.0581,-82.4013,094c8259-6f7b-4aaa-87f5-83795c988935,,,,,,,,,,,,,,,,,,,
001cv00000AuWqk,"Township Of Porter, OH",Ohio,Municipality,Mihir Shah,2206,,Tier 3,0.75,40.3091,-82.7994,5506a9b0-6aae-463d-b539-650a38b7f3cf,,,,,,,,,,,,,,,,,,,
001cv00000AuWqv,"Township Of Riley, OH",Ohio,Municipality,Ali Cohen,2210,,Tier 3,0.75,41.4093,-83.0147,e1282ef7-cbc2-4d58-b9b9-b5a8ebce2ace,,,,,,,,,,,,,,,,,,,
001cv00000AuWqz,"Village Of Woodsfield, OH",Ohio,Municipality,Mihir Shah,2211,,Tier 3,0.75,39.7626,-81.1154,77489ad8-d342-4397-ba4d-dc11356e8af3,,,,,,,,,,,,,,,,,,,
001cv00000AuWr0,"Township Of Mount Pleasant, OH",Ohio,Municipality,Ali Cohen,2211,,Tier 3,0.75,40.1753,-80.7979,9d4619a7-c577-4da2-bada-0a803b643b3c,,,,,,,,,,,,,,,,,,,
001cv00000AuWr2,"Village Of Genoa, OH",Ohio,Municipality,Mihir Shah,2212,,Tier 3,0.75,41.5181,-83.3591,cdef99db-2497-486a-a0bf-973266e2bc29,,,,,,,,,11,2026-04-15,11,,,,,,,,
001cv00000AuWr3,"Township Of Clearcreek (Warren County), OH",Ohio,Municipality,Ali Cohen,36238,All Modules Live,Tier 1,1.5,39.5284,-84.2068,2176e950-035a-4b90-a40d-f5897cdec5e9,Closed Won,,,Granger West,9/24/2024,1/5/2025,"$15,000",,,,,,,,,,,,
001cv00000AuWr4,"Township Of Loudon, OH",Ohio,Municipality,Mihir Shah,2213,,Tier 3,0.75,40.6353,-82.2332,8b961055-a11c-4f39-86fc-87e290fcf2b9,,,,,,,,,,,,,,,,,,,
001cv00000AuWrF,"Village Of New Miami, OH",Ohio,Municipality,Ali Cohen,2217,,Tier 3,0.75,39.4348,-84.5369,20a10823-0adb-4bda-bcab-d7b444c899ad,,,,,,,,,,,,,,,,,,,
001cv00000AuWrd,"Township Of Winchester, OH",Ohio,Municipality,Mihir Shah,2225,,Tier 3,0.75,38.9417,-83.6508,5f4702bb-0ec8-4210-a89b-3f19db5c7736,,,,,,,,,,,,,,,,,,,
001cv00000AuWrp,"Township Of Chatham, OH",Ohio,Municipality,Mihir Shah,2232,,Tier 3,0.75,41.1047,-82.0189,fcd93d47-ebe8-4298-982c-381fc1edfdd2,,,,,,,,,,,,,,,,,,,
001cv00000AuWyY,"Township Of Waterloo, OH",Ohio,Municipality,Ali Cohen,2301,,Tier 3,0.75,38.7015,-82.4738,c1357998-7c26-4eb6-9a4d-0e32e6e37ede,,,,,,,,,,,,,,,,,,,
001cv00000AuWyg,"Township Of York, OH",Ohio,Municipality,Mihir Shah,2303,,Tier 3,0.75,41.1679,-81.9207,1023c18e-a4c3-4c2a-90ff-cf79177ae64c,,,,,,,,,,,,,,,,,,,
001cv00000AuX5E,"Village Of Gates Mills, OH",Ohio,Municipality,Mihir Shah,2245,Nurture,Tier 3,0.75,41.5176,-81.4034,b69c86cc-f2b6-4d49-9300-2dc0797c82fa,Closed Lost,,,Emily Murnane,11/10/2025,11/4/2025,,,5,2025-11-04,5,,,,,,,,
001cv00000AuX5d,"Township Of Morgan, OH",Ohio,Municipality,Mihir Shah,2252,,Tier 3,0.75,39.3477,-84.7524,9e0ffbfc-4b28-4564-87cc-7077152e189f,,,,,,,,,,,,,,,,,,,
001cv00000AuX6W,"Township Of Morgan, OH",Ohio,Municipality,Mihir Shah,2270,,Tier 3,0.75,39.3477,-84.7524,93828ef8-7084-4948-9a91-c3630ec4a862,,,,,,,,,,,,,,,,,,,
001cv00000AuX6p,"Township Of Scott, OH",Ohio,Municipality,Ali Cohen,2275,,Tier 3,0.75,40.9898,-84.5833,913e2dbe-ca72-4565-828a-83582b4a366f,,,,,,,,,,,,,,,,,,,
001cv00000AuX6x,"Township Of Highland, OH",Ohio,Municipality,Mihir Shah,2277,,Tier 3,0.75,39.3445,-83.5974,49e2d5d4-3178-405e-86b1-420d543a4545,,,,,,,,,,,,,,,,,,,
001cv00000AuX75,"Village Of Glendale, OH",Ohio,Municipality,Ali Cohen,2281,,Tier 3,0.75,39.273,-84.4684,a4b216eb-0ed5-4076-81de-c28335b6211d,,,,,,,,,2,2025-08-04,,2,,,,,,,
001cv00000AuX79,"Village Of New Boston, OH",Ohio,Municipality,Mihir Shah,2282,,Tier 3,0.75,38.7523,-82.9368,252c25a6-bc71-499a-9372-362a88d39cf8,,,,,,,,,,,,,,,,,,,
001cv00000AuX7A,"Township Of Morgan, OH",Ohio,Municipality,Mihir Shah,2282,,Tier 3,0.75,39.3477,-84.7524,8062e810-85af-4e01-85b3-c419def7cb9e,,,,,,,,,,,,,,,,,,,
001cv00000AuX7I,"Village Of New Concord, OH",Ohio,Municipality,Ali Cohen,2285,,Tier 3,0.75,39.9937,-81.734,d084002b-5e0d-4c2c-8e82-d06f50cb91d0,,,,,,,,,,,,,,,,,,,
001cv00000AuX8n,"Township Of Mecca, OH",Ohio,Municipality,Mihir Shah,2316,,Tier 3,0.75,41.3895,-80.737,c30bf683-48b7-445f-8672-8aa63e079acb,,,,,,,,,,,,,,,,,,,
001cv00000AuX94,"Village Of Richwood, OH",Ohio,Municipality,Ali Cohen,2323,,Tier 3,0.75,40.4264,-83.2969,623c1e4c-e4a4-4664-9c5b-ef45b685c5d5,,,,,,,,,,,,,,,,,,,
001cv00000AuX9E,"Village Of Seville, OH",Ohio,Municipality,Mihir Shah,2328,,Tier 3,0.75,41.0101,-81.8624,d4f78cbe-17f7-427f-a75c-41baeee25e93,,,,,,,,,,,,,,,,,,,
001cv00000AuX9N,"Village Of Lithopolis, OH",Ohio,Municipality,Mihir Shah,2331,,Tier 3,0.75,39.8028,-82.8063,829ce160-c37e-408f-b277-d7f262dcbeb1,,,,,,,,,,,,,,,,,,,
001cv00000AuX9X,"Village Of Terrace Park, OH",Ohio,Municipality,Ali Cohen,2333,,Tier 3,0.75,39.1592,-84.3072,c89ded87-4668-4705-96e5-3d46c2213edc,,,,,,,,,,,,,,,,,,,
001cv00000AuX9Y,"Township Of Lawrence, OH",Ohio,Municipality,Ali Cohen,2333,,Tier 3,0.75,38.6233,-82.5186,964705ef-1e62-4f27-b61a-5d29749caf8d,,,,,,,,,,,,,,,,,,,
001cv00000AuX9r,"Village Of Arcanum, OH",Ohio,Municipality,Ali Cohen,2341,,Tier 3,0.75,39.99,-84.5533,a08165d4-85d0-481a-91d0-ee2d11182d09,,,,,,,,,,,,,,,,,,,
001cv00000AuX9s,"Village Of Sugarcreek, OH",Ohio,Municipality,Ali Cohen,2341,,Tier 3,0.75,40.5031,-81.641,e4c40b76-4e62-4296-b5f4-04bfda97e55f,,,,,,,,,,,,,,,,,,,
001cv00000AuX9t,"Township Of Milton, OH",Ohio,Municipality,Mihir Shah,2341,,Tier 3,0.75,41.1066,-80.965,cab38bce-4745-46d4-8e7b-cdee3bf345bf,,,,,,,,,,,,,,,,,,,
001cv00000AuX9w,"Township Of Nile, OH",Ohio,Municipality,Ali Cohen,2343,,Tier 3,0.75,41.1828,-80.7654,ed35a6cc-835f-461e-aece-0606a975bfd2,,,,,,,,,,,,,,,,,,,
001cv00000AuXA3,"Township Of Buck, OH",Ohio,Municipality,Mihir Shah,2346,,Tier 3,0.75,40.4145,-81.6751,b7a54726-a4b5-4e13-b23b-15bdcd4a4004,,,,,,,,,,,,,,,,,,,
001cv00000AuXAG,"Township Of Fowler, OH",Ohio,Municipality,Mihir Shah,2351,,Tier 3,0.75,41.3112,-80.6556,cd4928a2-c00e-47ab-a97b-d01099001f09,,,,,,,,,,,,,,,,,,,
001cv00000AuXAJ,"Township Of Licking, OH",Ohio,Municipality,Ali Cohen,2352,,Tier 3,0.75,39.9975,-82.6732,a616c36d-05a5-4129-90b2-0b45711c2de2,,,,,,,,,,,,,,,,,,,
001cv00000AuXAY,"Village Of Byesville, OH",Ohio,Municipality,Mihir Shah,2360,,Tier 3,0.75,39.9698,-81.5365,dafe903c-8edc-4424-926e-2e84852feded,,,,,,,,,,,,,,,,,,,
001cv00000AuXAa,"Township Of Pleasant, OH",Ohio,Municipality,Mihir Shah,2361,,Tier 3,0.75,39.8429,-83.1863,40b7f843-eba1-409d-825d-4b522e448462,,,,,,,,,,,,,,,,,,,
001cv00000AuXAx,"Township Of Edinburg, OH",Ohio,Municipality,Mihir Shah,2369,,Tier 3,0.75,41.0998,-81.1459,1ca16334-cd51-4503-a113-eb16b0a56a9f,,,,,,,,,,,,,,,,,,,
001cv00000AuXB0,"Township Of Trenton, OH",Ohio,Municipality,Ali Cohen,2372,,Tier 3,0.75,39.4809,-84.4577,607f96a0-29e0-4df3-ac47-62d9b9bcf477,,,,,,,,,,,,,,,,,,,
001cv00000AuXN2,"Township Of Dover, OH",Ohio,Municipality,Mihir Shah,2457,,Tier 3,0.75,40.5206,-81.474,f7890c56-3e42-424d-a646-f1ea34a52cfe,,,,,,,,,,,,,,,,,,,
