Account ID,Account Name,State,Entity Type,Owner,Population,Account Status,Tier,SQO Points,Lat,Lng,Starbridge Buyer ID,Opp Status,Stage,Funnel Position,Sourced By,Discovery Call Date,Created Date,ARR,Previously Lost,Total Calls,Last Call Date,Calls - Nick Martino,Calls - Leila Assil,Calls - Ben Laddis,Calls - Joe del Rosario,Calls - Jenny Allison,Calls - Quinzel Perry,Outreach ID
001Hr000028ZbdZ,"City Of North Branch, MN",Minnesota,Municipality,Nick Martino,11113,Recent Competitor Purchase,Tier 2,1.0,45.5102,-92.9931,3c353802-ed28-462a-83d7-3420e3e9bbeb,Closed Lost,,,Nick Martino,1/16/2026,10/13/2025,,,27,2026-01-08,27,,,,,,4667
001Hr000028ZbnD,"City Of Virginia, MN",Minnesota,Municipality,Nick Martino,8337,,Tier 3,0.75,47.5233,-92.5366,16be482e-daef-4115-8913-490b20535dea,,,,,,,,,,,,,,,,,4300
001Hr000028Zbnm,"Township Of Becker, MN",Minnesota,Municipality,Nick Martino,5565,,Tier 3,0.75,45.3937,-93.8703,2797f6d2-e82b-4fb6-a23c-b724947522b0,,,,,,,,,4,2025-07-01,4,,,,,,3578
001Hr000028Zbou,"City Of Lake City, MN",Minnesota,Municipality,Nick Martino,5297,,Tier 3,0.75,44.4493,-92.2667,511f700d-b23f-4b40-9e9a-8d25fd847bf4,,,,,,,,,,,,,,,,,3457
001Hr000028ZbuC,"City Of Delano, MN",Minnesota,Municipality,Nick Martino,6638,,Tier 3,0.75,45.0419,-93.7891,2a0b4477-5e16-49ef-b542-d482239b661a,,,,,,,,,,,,,,,,,3802
001Hr000028Zbui,"City Of Thief River Falls, MN",Minnesota,Municipality,Nick Martino,8674,,Tier 3,0.75,48.1191,-96.1811,95f7d8e0-52c8-49a0-b801-60e1a80b7c32,,,,,,,,,6,2025-07-09,6,,,,,,4359
001Hr000028ZbvG,"City Of North Oaks, MN",Minnesota,Municipality,Nick Martino,5164,,Tier 3,0.75,45.0914,-93.0905,48a2f441-d51b-4746-93e7-0f3c2415a449,,,,,,,,,,,,,,,,,3520
001Hr000028Zbwe,"City Of Forest Lake, MN",Minnesota,Municipality,Nick Martino,20608,,Tier 2,1.0,45.2789,-92.9852,6598a649-06f0-45b0-bb68-39048d3ae75a,,,,,,,,,,,,,,,,,5442
001Hr000028Zbxg,"City Of Kasson, MN",Minnesota,Municipality,Nick Martino,6931,,Tier 3,0.75,44.0296,-92.7509,f070e2ab-b901-4395-ab46-f483f50b013a,,,,,,,,,1,2025-06-30,1,,,,,,3860
001Hr000028Zbyx,"City Of Litchfield, MN",Minnesota,Municipality,Nick Martino,6532,,Tier 3,0.75,45.1258,-94.5283,bab983a2-a7ee-4316-850d-228da1cadc38,,,,,,,,,2,2025-06-13,,2,,,,,3905
001Hr000028Zc1K,"City Of Detroit Lakes, MN",Minnesota,Municipality,Nick Martino,9795,Nurture,Tier 3,0.75,46.8172,-95.8453,230bf22f-a8d7-41b3-bca9-a896ebafeb8e,Closed Lost,,,Shane Lieberman,8/29/2024,1/5/2025,,,,,,,,,,,4526
001Hr000028Zc2S,"City Of New Prague, MN",Minnesota,Municipality,Nick Martino,8247,,Tier 3,0.75,44.5433,-93.5761,3be0eb68-f628-44cc-9a61-6fc00451a38b,,,,,,,,,,,,,,,,,4215
001Hr000028Zc4T,"City Of Hibbing, MN",Minnesota,Municipality,Nick Martino,16077,Nurture,Tier 2,1.0,47.4272,-92.9377,30de88e7-abff-4c7b-8ba1-8a43a4187364,Closed Lost,,,Asher Rosenfeld,,1/5/2025,,,,,,,,,,,5194
001Hr000028Zc7l,"City Of Medina, MN",Minnesota,Municipality,Nick Martino,6809,,Tier 3,0.75,45.0352,-93.5825,0105b19f-1765-449a-bad6-254416b06c9f,,,,,,,,,5,2025-07-14,5,,,,,,3891
001Hr000028Zc85,"City Of Hermantown, MN",Minnesota,Municipality,Nick Martino,10211,,Tier 2,1.0,46.8069,-92.2382,d64c97a0-de90-408c-aef9-fdd0719336b2,,,,,,,,,18,2026-05-18,18,,,,,,4587
001Hr000028ZcA0,"Baldwin Township, MN",Minnesota,Municipality,Nick Martino,7077,,Tier 3,0.75,45.5016,-93.5932,31a47837-436d-4efa-8071-96445133df23,,,,,,,,,1,2025-06-18,,,,,,1,3984
001Hr000028ZcCX,"City Of Crystal, MN",Minnesota,Municipality,Nick Martino,22711,,Tier 2,1.0,45.0327,-93.3602,4d52fdef-feca-4ea2-86fd-c31f1ec06b4b,,,,,,,,,30,2026-04-21,30,,,,,,5571
001Hr000028ZcFq,"City Of Big Lake, MN",Minnesota,Municipality,Nick Martino,12198,,Tier 2,1.0,45.3325,-93.742,8179e0ba-7a88-467e-82f0-678efe3a4aa8,,,,,,,,,13,2026-05-18,13,,,,,,4767
001Hr000028ZcH5,"City Of Spring Lake Park, MN",Minnesota,Municipality,Nick Martino,7157,,Tier 3,0.75,45.1077,-93.238,80b6ccb0-b868-4df5-9612-745b5cec3a7e,,,,,,,,,1,2025-06-30,1,,,,,,3897
001Hr000028ZcIV,"City Of Edina, MN",Minnesota,Municipality,Nick Martino,53318,Open Opportunity,Tier S,2.0,44.8897,-93.3499,f34bc3c6-917a-4dce-bc96-368059d4cbf8,Open,Proposal,Mid Funnel,Nick Martino,8/13/2025,8/5/2025,"$66,000",,2,2025-08-11,2,,,,,,11718
001Hr000028ZcJJ,"City Of Winona, MN",Minnesota,Municipality,Nick Martino,25964,Open Opportunity,Tier 1,1.5,44.0554,-91.6664,00e4cdeb-4bab-4688-955a-7d76c29bf4b5,Open,Initial Interest,Top of Funnel,Nick Martino,1/16/2026,1/12/2026,,Yes,6,2026-01-12,6,,,,,,5702
001Hr000028ZcKE,"City Of Mound, MN",Minnesota,Municipality,Nick Martino,9187,,Tier 3,0.75,44.9366,-93.6661,681b24f9-1a33-4a57-899f-037bb1053439,,,,,,,,,,,,,,,,,4470
001Hr000028ZcL4,"City Of Waseca, MN",Minnesota,Municipality,Nick Martino,9241,,Tier 3,0.75,44.077,-93.5084,264486c9-3d45-4545-a590-f2f5816dccd0,,,,,,,,,5,2026-04-14,5,,,,,,4446
001Hr000028ZcLM,"City Of Morris, MN",Minnesota,Municipality,Nick Martino,5206,,Tier 3,0.75,45.5919,-95.9189,9b25f39f-88da-4e86-b9e5-e77ae7c059a8,,,,,,,,,3,2025-07-08,3,,,,,,3552
001Hr000028ZcLU,"City Of Isanti, MN",Minnesota,Municipality,Nick Martino,7064,,Tier 3,0.75,45.4894,-93.2476,63032364-95b1-42e5-9fce-66f07c993e2f,,,,,,,,,,,,,,,,,3755
001Hr000028ZcP0,"Town Of Thomson, MN",Minnesota,Municipality,Nick Martino,5557,Open Opportunity,Tier 3,0.75,46.7046,-92.341,23ba140b-ff2d-4f6b-ae62-bea2be7c4177,Open,Proposal,Mid Funnel,Granger West,6/23/2025,6/17/2025,"$21,000",,,,,,,,,,3588
001Hr000028ZcQN,"City Of Hopkins, MN",Minnesota,Municipality,Nick Martino,18573,Open Opportunity,Tier 2,1.0,44.9244,-93.4114,df65c25e-a084-42b6-b4bd-a33c156f9c17,Open,Initial Interest,Top of Funnel,Asher Rosenfeld,,1/5/2025,,,1,2025-08-13,,1,,,,,5356
001Hr000028ZcRI,"City Of Rogers, MN",Minnesota,Municipality,Nick Martino,13398,Nurture,Tier 2,1.0,45.1878,-93.5525,1db26d03-1514-43e0-b32f-b174abb933d9,Closed Lost,,,Shane Lieberman,7/2/2024,1/5/2025,,,29,2025-12-09,29,,,,,,4937
001Hr000028ZcRh,"City Of Chaska, MN",Minnesota,Municipality,Nick Martino,28047,Nurture,Tier 1,1.5,44.7893,-93.6018,be7aee22-1b83-4188-8658-970b3ceeb5b5,Closed Lost,,,Asher Rosenfeld,,1/5/2025,,,8,2026-04-21,8,,,,,,5756
001Hr000028ZcRo,"City Of Little Canada, MN",Minnesota,Municipality,Nick Martino,10499,Open Opportunity,Tier 2,1.0,45.0275,-93.0898,d8190b98-9ce9-42b0-b5b8-5aeadfc55ee7,Open,Proposal,Mid Funnel,Nick Martino,1/22/2026,1/13/2026,"$29,000",,1,2026-01-13,1,,,,,,4665
001Hr000028ZcRq,"City Of Hutchinson, MN",Minnesota,Municipality,Nick Martino,14590,,Tier 2,1.0,44.8925,-94.3693,fd2d0ffa-6b12-4be4-a632-8a528e01b3f3,,,,,,,,,,,,,,,,,5050
001Hr000028ZcT4,"City Of Eden Prairie, MN",Minnesota,Municipality,Nick Martino,63161,Open Opportunity,Tier S,2.0,44.8547,-93.4708,8d2c6379-9b82-4a5e-91e8-35ead437c1e7,Open,Demo,Mid Funnel,Nick Martino,5/12/2026,5/7/2026,,Yes,16,2025-08-22,16,,,,,,11738
001Hr000028ZcTD,"City Of Ham Lake, MN",Minnesota,Municipality,Nick Martino,16905,,Tier 2,1.0,45.2502,-93.25,d98935da-5d8b-48ef-b5d1-4bb16f0fabcb,,,,,,,,,14,2025-10-08,14,,,,,,5207
001Hr000028ZcTW,"City Of Roseville, MN",Minnesota,Municipality,Nick Martino,35874,Nurture,Tier 1,1.5,45.0061,-93.1566,37dc38ab-5866-4ff1-adbb-03f5a9c55de5,Closed Lost,,,Asher Rosenfeld,,1/5/2025,,,2,2025-06-02,,,,2,,,5974
001Hr000028ZcUq,"City Of Waite Park, MN",Minnesota,Municipality,Nick Martino,8360,,Tier 3,0.75,45.5572,-94.2242,3d6a2d6e-e6f4-47b6-bda9-598f277eb4c0,,,,,,,,,,,,,,,,,4256
001Hr000028ZcWR,"City Of Corcoran, MN",Minnesota,Municipality,Nick Martino,6770,,Tier 3,0.75,45.0952,-93.5475,a19bb73e-c7b1-4ad8-8f81-56e10afcc241,,,,,,,,,,,,,,,,,3783
001Hr000028ZcY3,"City Of Albert Lea, MN",Minnesota,Municipality,Nick Martino,18428,,Tier 2,1.0,43.6478,-93.3687,49895955-956f-4081-985a-f37dfea95c41,,,,,,,,,2,2026-04-09,2,,,,,,5330
001Hr000028ZcYq,"City Of Mendota Heights, MN",Minnesota,Municipality,Nick Martino,11665,Open Opportunity,Tier 2,1.0,44.8836,-93.1383,2b502425-d91e-48c0-9e1d-25c1bb79b319,Open,Meeting Booked,Top of Funnel,Nick Martino,3/18/2026,3/11/2026,,,24,2026-03-11,24,,,,,,4781
001Hr000028ZcZH,"City Of Jordan, MN",Minnesota,Municipality,Nick Martino,6777,,Tier 3,0.75,44.6712,-93.6294,388301ee-dd1c-413d-9ba8-a3329d4916af,,,,,,,,,1,2025-07-01,1,,,,,,3829
001Hr000028ZcaN,"City Of St Paul Park, MN",Minnesota,Municipality,Nick Martino,5486,,Tier 3,0.75,44.8348,-92.9926,15227e91-2324-4c7c-9456-08450663a827,,,,,,,,,12,2026-05-11,12,,,,,,3575
001Hr000028Zcas,"City Of Fairmont, MN",Minnesota,Municipality,Nick Martino,10410,,Tier 2,1.0,43.6522,-94.4611,edb2199a-2f59-4989-b5ff-c4c985b7125c,,,,,,,,,39,2026-05-08,39,,,,,,4634
001Hr000028Zcd1,"City Of St Joseph, MN",Minnesota,Municipality,Nick Martino,6932,,Tier 3,0.75,45.5648,-94.318,9b23940d-5115-4617-ac10-31410dee6ce6,,,,,,,,,,,,,,,,,4082
001Hr000028ZcdX,"City Of Bemidji, MN",Minnesota,Municipality,Nick Martino,15279,Nurture,Tier 2,1.0,47.4716,-94.8827,8d05ad4c-9466-4ebe-af4c-4e0893001554,Closed Lost,,,Shane Lieberman,6/27/2024,1/5/2025,,,5,2026-03-19,5,,,,,,5101
001Hr000028Zcdl,"City Of North St Paul, MN",Minnesota,Municipality,Nick Martino,12608,,Tier 2,1.0,45.0125,-92.9919,a460bb6a-6901-460d-aa0b-d183a4ad00d7,,,,,,,,,2,2025-08-21,2,,,,,,4852
001Hr000028ZceN,"City Of Montevideo, MN",Minnesota,Municipality,Nick Martino,5292,,Tier 3,0.75,44.941,-95.7236,6a4eaa99-8392-4836-ba14-a53741be9029,,,,,,,,,,,,,,,,,3465
001Hr000028ZceU,"City Of International Falls, MN",Minnesota,Municipality,Nick Martino,5718,Nurture,Tier 3,0.75,48.6023,-93.4041,3e90f735-eb1f-4103-ab50-cc0c62996130,Closed Lost,,,Asher Rosenfeld,,1/5/2025,,,,,,,,,,,3716
001Hr000028ZceX,"City Of La Crescent, MN",Minnesota,Municipality,Nick Martino,5274,,Tier 3,0.75,43.8265,-91.3036,0f26ee2c-447c-4ca7-9f9c-86d528d3bcbb,,,,,,,,,8,2025-07-17,8,,,,,,3490
001Hr000028Zcem,"City Of Chisago City, MN",Minnesota,Municipality,Nick Martino,5649,Nurture,Tier 3,0.75,45.3736,-92.8899,ba19d5ce-0b67-43f0-b5c2-e97096dff8c2,Closed Lost,,,Shane Lieberman,7/15/2024,1/5/2025,,,,,,,,,,,3494
001Hr000028ZcfA,"City Of Robbinsdale, MN",Minnesota,Municipality,Nick Martino,14245,Nurture,Tier 2,1.0,45.0322,-93.3386,3690e060-dd55-4103-bc64-94913290e30c,Closed Lost,,,Shane Lieberman,7/22/2024,1/5/2025,,,3,2025-09-23,3,,,,,,5054
001Hr000028ZcfQ,"Township Of Linwood, MN",Minnesota,Municipality,Nick Martino,5335,,Tier 3,0.75,45.3519,-93.0795,a4a35f02-9aff-4725-b766-9db55a640024,,,,,,,,,1,2025-06-30,1,,,,,,3551
001Hr000028ZcfX,"City Of Champlin, MN",Minnesota,Municipality,Nick Martino,23478,Nurture,Tier 2,1.0,45.1889,-93.3975,5394b9ca-8578-440c-81fe-c990304c39d5,Closed Lost,,,Shane Lieberman,6/10/2024,1/5/2025,,,,,,,,,,,5602
001Hr000028Zcfn,"City Of Baxter, MN",Minnesota,Municipality,Nick Martino,8830,,Tier 3,0.75,46.3484,-94.2686,820a18a0-b7d2-40b4-91eb-94d7df14ff6a,,,,,,,,,,,,,,,,,4319
001Hr000028Zcg9,"City Of Glencoe, MN",Minnesota,Municipality,Nick Martino,5710,,Tier 3,0.75,44.769,-94.1518,b1e8dea7-e6ac-463c-9e8e-2f52106b87b8,,,,,,,,,,,,,,,,,3596
001Hr000028ZcgJ,"City Of Carver, MN",Minnesota,Municipality,Nick Martino,6401,,Tier 3,0.75,44.7634,-93.6254,03bdc8ee-3e7c-491c-acb6-898e61818d24,,,,,,,,,5,2025-12-17,5,,,,,,3583
001Hr000028ZcgZ,"City Of Shorewood, MN",Minnesota,Municipality,Nick Martino,7728,,Tier 3,0.75,44.9012,-93.5847,b64e0fa2-542a-4cba-b0c8-2268eebaa62d,,,,,,,,,5,2025-07-08,5,,,,,,4157
001Hr000028Zcgi,"City Of Byron, MN",Minnesota,Municipality,Nick Martino,6546,Nurture,Tier 3,0.75,44.0327,-92.6455,7eddac80-9357-4733-8a52-251c74515ddf,Closed Lost,,,Nick Martino,7/3/2025,6/30/2025,"$21,000",,1,2025-06-30,1,,,,,,3611
001Hr000028Zcgm,"City Of Grand Rapids, MN",Minnesota,Municipality,Nick Martino,11220,Open Opportunity,Tier 2,1.0,47.237,-93.5283,c14ec73d-d9b4-46a7-8c6f-05ed283af848,Open,Proposal,Mid Funnel,Nick Martino,10/30/2025,10/24/2025,"$35,000",,18,2025-10-24,18,,,,,,4701
001Hr000028Zcgr,"City Of Mounds View, MN",Minnesota,Municipality,Nick Martino,12946,,Tier 2,1.0,45.105,-93.2086,e0b8228f-aae4-41dc-a265-3bfd20d40ef7,,,,,,,,,7,2026-05-18,7,,,,,,4938
001Hr000028Zch7,"City Of Falcon Heights, MN",Minnesota,Municipality,Nick Martino,5227,Nurture,Tier 3,0.75,44.9916,-93.1663,62c3f796-8dcf-49f7-b729-a7e315831d8f,Closed Lost,,,Shane Lieberman,7/8/2024,1/5/2025,,,,,,,,,,,3620
001Hr000028ZchO,"City Of Minnetrista, MN",Minnesota,Municipality,Nick Martino,8557,,Tier 3,0.75,44.9383,-93.7177,c744bc31-5e1b-4f00-84cc-9ec8e2f97e19,,,,,,,,,,,,,,,,,4249
001Hr000028Zche,"City Of New Ulm, MN",Minnesota,Municipality,Nick Martino,14096,Nurture,Tier 2,1.0,44.3144,-94.4593,36f8eb65-ac56-41fb-9719-3b97c790d867,Closed Lost,,,Asher Rosenfeld,,1/5/2025,,,,,,,,,,,5010
001Hr000028Zci0,"City Of Zimmerman, MN",Minnesota,Municipality,Nick Martino,6395,,Tier 3,0.75,45.4433,-93.5936,916d6d93-f7cd-4579-8ebb-1f8ed694e003,,,,,,,,,,,,,,,,,3694
001Hr000028Zci9,"City Of Otsego, MN",Minnesota,Municipality,Marykate McCarthy,21401,1+ Module Live,Tier 2,1.0,45.2741,-93.5914,c8d04b1b-5958-406a-9d9a-b8e3a7e125ac,Closed Won,,,Joe del Rosario,2/19/2025,1/16/2025,"$25,000",,,,,,,,,,5400
001Hr000028Zcia,"City Of Orono, MN",Minnesota,Municipality,Nick Martino,8212,Nurture,Tier 3,0.75,44.9714,-93.6044,b65f4d49-fe01-4d51-af1c-250bc0276c3a,Closed Lost,,,Liam Shaw,11/6/2024,1/5/2025,,,35,2026-03-09,29,,,6,,,4258
001Hr000028Zcim,"City Of Vadnais Heights, MN",Minnesota,Municipality,Nick Martino,12623,,Tier 2,1.0,45.0506,-93.0693,c310249e-1f67-49dc-b1aa-e6ab91b8e6ed,,,,,,,,,8,2026-05-18,8,,,,,,4917
001Hr000028ZcjN,"City Of Stewartville, MN",Minnesota,Municipality,Nick Martino,6759,,Tier 3,0.75,43.8555,-92.4885,76a71ea8-f649-4dc2-a214-bb391b2f81af,,,,,,,,,13,2025-10-23,13,,,,,,3789
001Hr000028Zcje,"City Of Mahtomedi, MN",Minnesota,Municipality,Nick Martino,8075,,Tier 3,0.75,45.0697,-92.9516,c59dc3d7-e15a-4550-b68e-4f39844aa708,,,,,,,,,,,,,,,,,4210
001Hr000028Zcjf,"City Of North Mankato, MN",Minnesota,Municipality,Nick Martino,14448,Open Opportunity,Tier 2,1.0,44.1733,-94.0338,45bf85cd-6b09-4689-9a32-0dcea3dfd1d8,Open,Meeting Booked,Top of Funnel,Nick Martino,5/13/2026,5/8/2026,,,5,2026-05-08,5,,,,,,5037
001Hr000028ZckW,"City of St. Francis, MN",Minnesota,Municipality,Nick Martino,8099,,Tier 3,0.75,45.3975,-93.3879,7128a0a7-f3d5-4329-888e-a31ac64af926,,,,,,,,,,,,,,,,,4221
001Hr000028ZckY,"Township Of White Bear, MN",Minnesota,Municipality,Nick Martino,10742,,Tier 2,1.0,45.0961,-93.021,b2a86ea2-5fd7-4b7b-8e22-aee887a9d0e2,,,,,,,,,,,,,,,,,4697
001Hr000028Zckn,"City Of Maplewood, MN",Minnesota,Municipality,Nick Martino,40940,Open Opportunity,Tier 1,1.5,44.953,-92.9952,128f4029-a275-4b13-81b1-fe51f39bc0d4,Open,Initial Interest,Top of Funnel,Ben Laddis,,2/13/2026,,,21,2026-02-25,14,,7,,,,6064
001Hr000028Zcl7,"City Of Belle Plaine, MN",Minnesota,Municipality,Nick Martino,7444,,Tier 3,0.75,44.623,-93.7684,7033b13f-aa30-439a-81e3-7cf1ea08ceee,,,,,,,,,,,,,,,,,4043
001Hr000028ZclP,"City Of Albertville, MN",Minnesota,Municipality,Nick Martino,7970,Nurture,Tier 3,0.75,45.2312,-93.6688,bd313f4b-c243-4bf0-89b7-8a2cb84dbc83,Closed Lost,,,Liam Shaw,11/18/2024,1/5/2025,,,1,2025-05-29,,,,1,,,4162
001Hr000028Zcn6,"City Of Dayton, MN",Minnesota,Municipality,Nick Martino,8226,Open Opportunity,Tier 3,0.75,45.2439,-93.515,aa61a0cb-8688-4089-b5ba-d44581548104,Open,Meeting Booked,Top of Funnel,Nick Martino,4/13/2026,4/2/2026,,,8,2026-05-19,8,,,,,,4029
001Hr000028ZcnH,"City Of South St Paul, MN",Minnesota,Municipality,Nick Martino,20536,,Tier 2,1.0,44.876,-93.0276,9eea95c8-68ed-4680-9534-47b4ccf07b1d,,,,,,,,,13,2025-09-15,13,,,,,,5459
001Hr000028Zco5,"City Of Oak Grove, MN",Minnesota,Municipality,Nick Martino,9058,,Tier 3,0.75,45.3408,-93.3269,51355030-3a16-4332-8a62-e6e00da08f24,,,,,,,,,8,2025-07-29,8,,,,,,4376
001Hr000028Zcoa,"City Of Anoka, MN",Minnesota,Municipality,Nick Martino,17847,Nurture,Tier 2,1.0,45.1977,-93.3872,3760c988-46f3-4d3e-a467-606e40117377,Closed Lost,,,Asher Rosenfeld,,1/5/2025,,,13,2025-09-08,13,,,,,,5290
001Hr000028Zcoh,"City Of Crookston, MN",Minnesota,Municipality,Nick Martino,7315,Nurture,Tier 3,0.75,47.7746,-96.6094,cd36b0a1-81ca-42b8-b247-3730a8fa1c10,Closed Lost,,,Shane Lieberman,7/25/2024,1/5/2025,,,6,2025-11-07,6,,,,,,4097
001Hr000028ZcpN,"City Of Little Falls, MN",Minnesota,Municipality,Nick Martino,9061,,Tier 3,0.75,45.9806,-94.3694,af8f29ce-1bb3-4ef0-95fe-0b59f4a42b4b,,,,,,,,,3,2025-07-01,3,,,,,,4408
001Hr000028ZcpY,"City Of Chanhassen, MN",Minnesota,Municipality,Nick Martino,26037,,Tier 1,1.5,44.862,-93.5323,785c7370-ea97-49a8-a192-c79413479178,,,,,,,,,,,,,,,,,5684
001Hr000028ZcqE,"City Of Wyoming, MN",Minnesota,Municipality,Nick Martino,8063,,Tier 3,0.75,45.3375,-92.9981,15e4a395-49a4-4b79-a321-2f50721ec46a,,,,,,,,,,,,,,,,,4195
001Hr000028Zcrm,"City Of Arden Hills, MN",Minnesota,Municipality,Nick Martino,9637,Nurture,Tier 3,0.75,45.0502,-93.1566,981c5793-8ee6-4687-a829-1b52a385148a,Closed Lost,,,Shane Lieberman,7/12/2024,1/5/2025,,,27,2026-05-19,27,,,,,,4544
001Hr000028ZcsO,"City Of Hugo, MN",Minnesota,Municipality,Nick Martino,16109,Nurture,Tier 2,1.0,45.16,-92.9933,1a8e90c5-4685-4684-89e0-5638cd94594a,Closed Lost,,,Joe del Rosario,4/14/2025,3/25/2025,,,15,2026-02-23,15,,,,,,5159
001Hr000028ZcsT,"City Of Faribault, MN",Minnesota,Municipality,Nick Martino,24420,,Tier 2,1.0,44.295,-93.2688,5643a871-2322-4d08-b8ee-24b32ad2f5f6,,,,,,,,,,,,,,,,,5622
001Hr000028ZcsV,"City Of Alexandria, MN",Minnesota,Municipality,Nick Martino,14382,,Tier 2,1.0,45.8848,-95.3777,4dc65903-85fd-4f49-b6e1-92f9ec3c171a,,,,,,,,,4,2025-08-28,4,,,,,,5007
001Hr000028Zcu1,"City Of East Grand Forks, MN",Minnesota,Municipality,Nick Martino,9079,,Tier 3,0.75,47.9312,-97.0093,4377c51b-928b-4743-ba3b-e0f4019df0f8,,,,,,,,,,,,,,,,,4430
001Hr000028Zcu7,"City Of Cambridge, MN",Minnesota,Municipality,Nick Martino,9915,,Tier 3,0.75,45.5657,-93.2259,2bf908f2-48c8-4750-b486-16387c7ac95d,,,,,,,,,,,,,,,,,4487
001Hr000028ZcuG,"City Of St Anthony Village, MN",Minnesota,Municipality,Nick Martino,9007,,Tier 3,0.75,45.0206,-93.2179,bc574432-5cfc-4edc-af5f-913bbf0ee9b6,,,,,,,,,,,,,,,,,4432
001Hr000028Zcuj,"City Of Andover, MN",Minnesota,Municipality,Nick Martino,32926,Open Opportunity,Tier 1,1.5,45.2333,-93.2913,49a64f5d-4d0e-43f0-a256-86df4519af86,Open,Initial Interest,Top of Funnel,Asher Rosenfeld,,1/5/2025,,,,,,,,,,,5908
001Hr000028Zcut,"City Of Austin, MN",Minnesota,Municipality,Briana Maibaum,26225,All Modules Live,Tier 1,1.5,43.6666,-92.9746,f56fd706-e3fe-44e7-b88e-5c7402615a1b,Closed Won,,,Asher Rosenfeld,6/18/2024,1/5/2025,"$7,500",,,,,,,,,,5697
001Hr000028ZcvX,"City Of Worthington, MN",Minnesota,Municipality,Nick Martino,13726,,Tier 2,1.0,43.6211,-95.5941,41c27d2c-4dde-4631-a3f9-dc8e16a7e320,,,,,,,,,4,2026-05-13,4,,,,,,4993
001Hr000028Zcwc,"City Of Victoria, MN",Minnesota,Municipality,Nick Martino,11042,Nurture,Tier 2,1.0,44.8587,-93.6615,7f80a42e-2451-48c1-ad80-a9336991ed4d,Closed Lost,,,Nick Martino,11/3/2025,8/25/2025,"$16,000",,25,2025-09-08,25,,,,,,4620
001Hr000028Zcx9,"City Of Lino Lakes, MN",Minnesota,Municipality,Nick Martino,21608,,Tier 2,1.0,45.1602,-93.0888,cc8a4c13-8a02-4b5d-9455-c013159323c7,,,,,,,,,14,2026-05-18,14,,,,,,5480
001Hr000028Zcxp,"City Of Lake Elmo, MN",Minnesota,Municipality,Nick Martino,12899,,Tier 2,1.0,44.9958,-92.8794,35e0797c-3cad-46ee-8342-dccbc657c8d8,,,,,,,,,,,,,,,,,4730
001Hr000028Zcxw,"City Of Oakdale, MN",Minnesota,Municipality,Nick Martino,27974,,Tier 1,1.5,44.963,-92.9649,d9dc1c29-01c4-40d3-96de-f14c208d02d8,,,,,,,,,3,2025-08-14,3,,,,,,5776
001Hr000028Zcyt,"City Of Cloquet, MN",Minnesota,Municipality,Nick Martino,12686,,Tier 2,1.0,46.7218,-92.4612,72e41923-e2da-420a-b2ba-9ad747198f7d,,,,,,,,,19,2025-10-07,19,,,,,,4877
001Hr000028Zcyx,"City Of Waconia, MN",Minnesota,Municipality,Nick Martino,13071,,Tier 2,1.0,44.8504,-93.7876,29e272bf-d55e-45c9-8eea-0d97619e4ed9,,,,,,,,,20,2025-10-06,20,,,,,,4903
001Hr000028Zczp,"City Of St Peter, MN",Minnesota,Municipality,Nick Martino,11707,Open Opportunity,Tier 2,1.0,44.3259,-93.9557,9a3e08a0-62ea-46f7-bade-12a66a6f75e4,Open,Initial Interest,Top of Funnel,,,1/5/2025,,,,,,,,,,,4784
001Hr000028Zd0Q,"City Of Brainerd, MN",Minnesota,Municipality,Nick Martino,14255,,Tier 2,1.0,46.3527,-94.202,c787e2aa-88f3-46b2-8e6a-da1c561f1b43,,,,,,,,,5,2026-05-13,5,,,,,,5012
001Hr000028Zd0T,"City Of East Bethel, MN",Minnesota,Municipality,Nick Martino,12038,Open Opportunity,Tier 2,1.0,45.3194,-93.2024,499e0a98-880a-484a-9bc8-93a49c345e2b,Open,Initial Interest,Top of Funnel,Asher Rosenfeld,,1/5/2025,,,,,,,,,,,4803
001Hr000028Zd1U,"City Of West St Paul, MN",Minnesota,Municipality,Nick Martino,20822,,Tier 2,1.0,44.9161,-93.1016,9a4be49a-3778-469b-91da-2ca06c32c749,,,,,,,,,18,2025-09-04,18,,,,,,5450
001Hr000028Zd2E,"City Of Ramsey, MN",Minnesota,Municipality,Nick Martino,28202,,Tier 1,1.5,45.2611,-93.45,d34950fb-f044-43bf-b105-1802f1aa9587,,,,,,,,,3,2025-08-27,3,,,,,,5751
001Hr000028Zd2G,"City Of Monticello, MN",Minnesota,Municipality,Nick Martino,14564,Open Opportunity,Tier 2,1.0,45.3055,-93.7941,9d696208-2856-4762-bdf0-a13398172b6a,Open,Initial Interest,Top of Funnel,Granger West,1/21/2025,1/5/2025,,,,,,,,,,,5023
001Hr000028Zd3W,"City Of Golden Valley, MN",Minnesota,Municipality,Nick Martino,21942,,Tier 2,1.0,44.9917,-93.36,e08be883-bed9-4185-899d-f11b3963449d,,,,,,,,,20,2025-09-15,20,,,,,,5529
001Hr000028Zd3r,"City Of Marshall, MN",Minnesota,Municipality,Nick Martino,13641,,Tier 2,1.0,44.4484,-95.7912,c586077e-39e6-484f-b39f-f252aca6952b,,,,,,,,,2,2026-04-20,2,,,,,,4988
001Hr000028Zd45,"City of Owatonna, MN",Minnesota,Municipality,Nick Martino,26398,,Tier 1,1.5,44.0879,-93.226,101d23d9-5fea-4e5b-9cb3-cf1818eb91d5,,,,,,,,,24,2025-09-04,24,,,,,,5707
001Hr000028Zd46,"City Of Sauk Rapids, MN",Minnesota,Municipality,Nick Martino,13896,,Tier 2,1.0,45.5919,-94.1661,fe8aa6c6-183a-4f45-95c4-6e20986d11a9,,,,,,,,,,,,,,,,,5003
001Hr000028Zd4V,"Fergus Falls Township, MN",Minnesota,Municipality,Nick Martino,13969,Nurture,Tier 2,1.0,46.3344,-96.1018,adf0aff1-807b-4887-90b9-7ef49b68f2f4,,,,,,,,,,,,,,,,,5004
001Hr000028Zd4d,"City of St. Louis Park, MN",Minnesota,Municipality,Nick Martino,50010,Nurture,Tier S,2.0,44.9597,-93.3702,c1068b90-ed67-459b-b1b0-65bcafcc6efb,Closed Lost,,,Nick Martino,10/27/2025,10/21/2025,,,38,2025-10-21,38,,,,,,6156
001Hr000028Zd5e,"City Of Red Wing, MN",Minnesota,Municipality,Nick Martino,16763,Nurture,Tier 2,1.0,44.5661,-92.537,0d4c6b5d-77d9-425a-88d1-1bc00ecc024b,Closed Lost,,,Asher Rosenfeld,,1/5/2025,,,1,2025-10-28,1,,,,,,5216
001Hr000028Zd5q,"City Of Farmington, MN",Minnesota,Municipality,Nick Martino,37034,Recent Competitor Purchase,Tier 1,1.5,44.6402,-93.1436,065acc0b-944b-4ada-b2c4-4554f97e6413,Closed Lost,,,Nick Martino,9/25/2025,9/23/2025,,,37,2025-12-11,37,,,,,,5576
001Hr000028Zd5z,"City Of Fridley, MN",Minnesota,Municipality,Nick Martino,30313,,Tier 1,1.5,45.0861,-93.2633,4ba70e74-0c6c-467b-852f-a930dccfd505,,,,,,,,,6,2026-04-13,6,,,,,,5822
001Hr000028Zd6E,"City Of New Hope, MN",Minnesota,Municipality,Nick Martino,21356,,Tier 2,1.0,45.038,-93.3866,ab1efadb-f816-4d30-944f-12d9ac95e18a,,,,,,,,,23,2025-10-09,23,,,,,,5503
001Hr000028Zd6m,"City of St. Michael, MN",Minnesota,Municipality,Nick Martino,18148,Nurture,Tier 2,1.0,45.21,-93.665,f351574b-df49-46cb-a7e4-25c924dca79e,Closed Lost,,,Asher Rosenfeld,,1/5/2025,,,13,2026-05-18,13,,,,,,5312
001Hr000028Zd7K,"City Of Buffalo, MN",Minnesota,Municipality,Nick Martino,16386,,Tier 2,1.0,45.1718,-93.8748,78c09054-54ac-4deb-9b2b-680c468ef4a2,,,,,,,,,10,2025-10-07,10,,,,,,5185
001Hr000028Zd7a,"City Of Columbia Heights, MN",Minnesota,Municipality,Nick Martino,21835,,Tier 2,1.0,45.0482,-93.2474,c230fd59-989e-44b3-a3fe-8be8b9109057,,,,,,,,,8,2026-05-11,8,,,,,,5500
001Hr000028Zd84,"City Of Sartell, MN",Minnesota,Municipality,Nick Martino,19532,,Tier 2,1.0,45.6216,-94.2069,b2302568-998c-4e63-83c0-bdd340eb6613,,,,,,,,,37,2026-04-02,20,,17,,,,5375
001Hr000028Zd8j,"City Of Rosemount, MN",Minnesota,Municipality,Nick Martino,26642,Nurture,Tier 1,1.5,44.7394,-93.1258,019eb917-84a4-42ac-8f12-97e86ecd8577,Closed Lost,,,Asher Rosenfeld,,1/5/2025,,,19,2026-05-18,19,,,,,,5681
001Hr000028Zd8o,"City Of Northfield, MN",Minnesota,Municipality,Nick Martino,20729,,Tier 2,1.0,44.4583,-93.1616,f494015e-cc05-42b6-bbe0-dd94d7ef8e90,,,,,,,,,22,2026-03-05,22,,,,,,5444
001Hr000028Zd9i,"City Of Shakopee, MN",Minnesota,Municipality,Nick Martino,44547,,Tier 1,1.5,44.7974,-93.5273,83fc2719-3371-47c9-ba8e-ba6d64d19955,,,,,,,,,4,2026-05-12,4,,,,,,6085
001Hr000028Zd9r,"City Of Willmar, MN",Minnesota,Municipality,Nick Martino,21045,,Tier 2,1.0,45.1224,-95.0487,9a4ca30f-0a43-48f6-9473-26ff2222e994,,,,,,,,,19,2026-05-18,19,,,,,,5470
001Hr000028Zd9t,"City Of Moorhead, MN",Minnesota,Municipality,Nick Martino,44668,,Tier 1,1.5,46.8738,-96.7678,3672e95e-b06e-4269-81bd-6fa9c7a3adfa,,,,,,,,,17,2026-05-15,17,,,,,,6098
001Hr000028Zd9u,"City Of Stillwater, MN",Minnesota,Municipality,Nick Martino,19389,Recent Competitor Purchase,Tier 2,1.0,45.056,-92.8088,06ce4450-eb82-4421-82ed-797a3d80f114,Closed Lost,,,Nick Martino,1/21/2026,1/12/2026,"$18,000",,,,,,,,,,5379
001Hr000028ZdAD,"City Of Richfield, MN",Minnesota,Municipality,Nick Martino,36527,,Tier 1,1.5,44.8833,-93.283,b922f1b0-649c-4294-97bc-1ff16c3606be,,,,,,,,,,,,,,,,,5988
001Hr000028ZdAR,"City Of Mankato, MN",Minnesota,Municipality,Nick Martino,44693,,Tier 1,1.5,44.1661,-94.0056,1d5077cf-f6f0-4005-ad14-30b6a0128943,,,,,,,,,5,2025-08-21,5,,,,,,6095
001Hr000028ZdBG,"City Of Minnetonka, MN",Minnesota,Municipality,Nick Martino,53266,Open Opportunity,Tier S,2.0,44.9379,-93.4669,49407c02-4932-4634-b2b5-a5fa2748a747,Open,Initial Interest,Top of Funnel,Nick Martino,,11/26/2025,,,76,2025-12-11,50,26,,,,,11733
001Hr000028ZdBb,"City Of Hastings, MN",Minnesota,Municipality,Nick Martino,21925,Open Opportunity,Tier 2,1.0,44.7443,-92.8514,c5fa8f9b-bed2-4d61-8acd-5359aa354fb2,Open,Initial Interest,Top of Funnel,Asher Rosenfeld,,1/5/2025,,,11,2026-01-06,11,,,,,,5519
001Hr000028ZdBh,"City Of White Bear Lake, MN",Minnesota,Municipality,Nick Martino,24130,,Tier 2,1.0,45.0503,-93.0154,8ef2b133-465d-4a5b-a614-e8fc7b6afaa0,,,,,,,,,39,2026-01-20,39,,,,,,5629
001Hr000028ZdCj,"City Of New Brighton, MN",Minnesota,Municipality,Nick Martino,22902,,Tier 2,1.0,45.0655,-93.2019,7fd11e05-d8cc-461d-aeb5-433186dd2d77,,,,,,,,,11,2026-05-18,11,,,,,,5578
001Hr000028ZdEV,"City Of Elk River, MN",Minnesota,Municipality,Nick Martino,26192,Open Opportunity,Tier 1,1.5,45.3032,-93.5547,16edea45-9a71-47a0-acd2-5c96a8b573a3,Open,Meeting Booked,Top of Funnel,Nick Martino,6/1/2026,4/14/2026,,,18,2026-05-14,18,,,,,,5678
001Hr000028ZdEd,"City Of Woodbury, MN",Minnesota,Municipality,Nick Martino,76990,,Tier S,2.0,44.9239,-92.9594,131245a9-cad5-4309-8d64-69ebe8594464,,,,,,,,,6,2025-09-17,6,,,,,,11753
001Hr000028ZdEg,"City Of Prior Lake, MN",Minnesota,Municipality,Nick Martino,28086,Nurture,Tier 1,1.5,44.7133,-93.4227,b3b84798-08b3-4d47-ada4-e92fe8258f68,Closed Lost,,,Ben Laddis,2/24/2026,2/17/2026,,,3,2026-02-17,,,3,,,,5744
001Hr000028ZdFJ,"City Of Shoreview, MN",Minnesota,Municipality,Nick Martino,26670,,Tier 1,1.5,45.0791,-93.1472,998adbde-273c-4fd7-b7b2-43a283031ec4,,,,,,,,,,,,,,,,,5732
001Hr000028ZdFu,"City Of Blaine, MN",Minnesota,Municipality,Nick Martino,70935,,Tier S,2.0,45.1608,-93.2349,0b15461e-de42-4adb-903b-f8c8ced761d9,,,,,,,,,20,2026-03-09,19,1,,,,,11726
001Hr000028ZdG3,"City Of Savage, MN",Minnesota,Municipality,Nick Martino,32983,Open Opportunity,Tier 1,1.5,44.7647,-93.3591,51b40476-a033-4e16-8a2b-6fdae11489d1,Open,Initial Interest,Top of Funnel,Asher Rosenfeld,,1/5/2025,,,42,2026-02-02,41,,,1,,,5903
001Hr000028ZdGc,"City Of Cottage Grove, MN",Minnesota,Municipality,Nick Martino,39926,,Tier 1,1.5,44.8277,-92.9438,8d131b93-5520-4036-ada4-6b1745de8231,,,,,,,,,14,2025-10-07,14,,,,,,6018
001Hr000028ZdI8,"City Of Brooklyn Center, MN",Minnesota,Municipality,Nick Martino,32880,,Tier 1,1.5,45.0761,-93.3327,17e94454-50eb-425f-88b6-07fee8d0b192,,,,,,,,,25,2025-10-09,25,,,,,,5927
001Hr000028ZdJ6,"City Of Inver Grove Heights, MN",Minnesota,Municipality,Nick Martino,35541,,Tier 1,1.5,44.848,-93.0427,b7cb2e56-746f-475d-9889-9c6e423ebce9,,,,,,,,,1,2025-07-01,,,,1,,,5967
001Hr000028ZdKa,"City Of Lakeville, MN",Minnesota,Municipality,Nick Martino,72812,,Tier S,2.0,44.6497,-93.2427,e4bed6ea-e1f8-4349-bb53-b6724faaf9d1,,,,,,,,,3,2025-08-08,3,,,,,,11754
001Hr000028ZdQU,"City Of Plymouth, MN",Minnesota,Municipality,Nick Martino,79828,,Tier S,2.0,45.0105,-93.4555,b8d58dbd-ac46-4dc1-a348-19b2862d8583,,,,,,,,,7,2026-05-18,7,,,,,,11740
001Hr000028ZdT0,"Le Sueur County, MN",Minnesota,County,Nick Martino,29458,,Tier 1,1.5,44.4162,-93.6623,7249b627-a220-4cab-8af4-bcd261f1828f,,,,,,,,,1,2025-06-17,,1,,,,,12288
001Hr000028ZdWg,"Pine County, MN",Minnesota,County,Nick Martino,30197,,Tier 1,1.5,46.0983,-92.8071,22188cb7-03c5-466f-b646-d8fd840d3e2f,,,,,,,,,3,2025-06-23,,3,,,,,12276
001Hr000028ZdWk,"City Of Maple Grove, MN",Minnesota,Municipality,Nick Martino,70726,,Tier S,2.0,45.0725,-93.4558,27dc5086-e61a-41a4-8546-6e79bc50537c,,,,,,,,,51,2025-10-10,51,,,,,,11750
001Hr000028ZdY5,"Sherburne County, MN",Minnesota,County,Nick Martino,103059,,Tier S,2.0,45.4645,-93.7299,12b254e0-6ba2-4f66-8cd2-b153734992cc,,,,,,,,,11,2026-03-26,11,,,,,,12258
001Hr000028Zda8,"Saint Louis County, MN",Minnesota,County,Nick Martino,200794,Open Opportunity,Tier S,2.0,47.7395,-92.3624,476559e4-bea0-4808-a397-b781bdd5b69b,Open,Proposal,Mid Funnel,Nick Martino,3/16/2026,3/9/2026,"$65,000",,4,2026-03-10,4,,,,,,12427
001Hr000028Zdd4,"City Of Brooklyn Park, MN",Minnesota,Municipality,Nick Martino,84526,Open Opportunity,Tier S,2.0,45.0941,-93.3563,389f702a-8d10-4fbc-a59b-cfadb72d7a24,Open,Initial Interest,Top of Funnel,Nick Martino,,2/18/2026,,,26,2026-05-18,26,,,,,,11737
001Hr000028Zddq,"Winona County, MN",Minnesota,County,Nick Martino,49973,Nurture,Tier 1,1.5,44.0065,-91.7539,940523cc-e009-4f65-b649-2e067d8e7471,Closed Lost,,,Nick Martino,4/8/2026,4/6/2026,,,24,2026-03-31,24,,,,,,12287
001Hr000028Zde0,"City Of Burnsville, MN",Minnesota,Municipality,Nick Martino,63943,,Tier S,2.0,44.7677,-93.2777,c56f5bc5-6bbd-4d6e-ac3f-2741638307c6,,,,,,,,,23,2025-10-09,23,,,,,,11763
001Hr000028Zde5,"Kandiyohi County, MN",Minnesota,County,Nick Martino,43757,,Tier 1,1.5,45.1145,-95.0156,a800f6b2-2fd4-4f9b-b340-fa9fb3cd3ce1,,,,,,,,,11,2026-05-18,11,,,,,,12282
001Hr000028ZdfS,"City Of Apple Valley, MN",Minnesota,Municipality,Nick Martino,55638,,Tier S,2.0,44.7319,-93.2177,d8ce313e-30bd-4f54-b449-b60ee69e92f9,,,,,,,,,13,2025-08-27,13,,,,,,11751
001Hr000028Zdfo,"Otter Tail County, MN",Minnesota,County,Nick Martino,60884,,Tier S,2.0,46.5189,-95.8936,4bf16bfa-af65-4ef8-ae28-624406fdc642,,,,,,,,,8,2026-03-11,8,,,,,,12283
001Hr000028ZdhF,"Scott County, MN",Minnesota,County,Nick Martino,159017,Open Opportunity,Tier S,2.0,44.6834,-93.5408,68374385-2287-47aa-ba0e-d61dc55fd693,Open,Initial Interest,Top of Funnel,Nick Martino,,5/13/2026,,,26,2026-05-18,26,,,,,,12420
001Hr000028Zdil,"City Of Duluth, MN",Minnesota,Municipality,Nick Martino,86372,,Tier S,2.0,46.7845,-92.1055,b8c927c4-2bb0-4953-b0dd-ea2dce1c793a,,,,,,,,,1,2025-08-12,1,,,,,,11722
001Hr000028Zdiv,"City Of St Cloud, MN",Minnesota,Municipality,Nick Martino,68818,,Tier S,2.0,45.5579,-94.1632,65238ea1-99b6-4e79-b1cb-2fb068eba124,,,,,,,,,20,2025-08-27,20,,,,,,11760
001Hr000028Zdj9,"City Of Bloomington, MN",Minnesota,Municipality,Nick Martino,89298,Open Opportunity,Tier S,2.0,44.8408,-93.2983,4e97a55a-e0c4-4161-a4df-0dfe17f3404f,Open,Sales Qualified,Mid Funnel,Nick Martino,2/19/2026,1/30/2026,,,37,2025-09-23,37,,,,,,11741
001Hr000028Zdjn,"City Of Coon Rapids, MN",Minnesota,Municipality,Nick Martino,63385,,Tier S,2.0,45.1732,-93.303,f13d4b2e-2838-44d3-b4d1-9bc6e332726f,,,,,,,,,1,2025-11-12,1,,,,,,11749
001Hr000028Zdlm,"Wright County, MN",Minnesota,County,Nick Martino,154593,,Tier S,2.0,45.1538,-94.0191,38e85fe5-8e3c-4072-958c-61786268684f,,,,,,,,,10,2026-02-24,10,,,,,,12438
001Hr000028Zdoa,"Brown County, MN",Minnesota,County,Nick Martino,,,Tier 3,0.75,44.2294,-94.645,99645f99-dc64-4fe1-b4c6-deddaaa8faa4,,,,,,,,,,,,,,,,,12260
001Hr000028Zdqp,"Benton County, MN",Minnesota,County,Nick Martino,41881,,Tier 1,1.5,45.7211,-93.9733,59f5d19b-7ecf-4d90-8132-4ffa2779dfb5,,,,,,,,,3,2026-03-10,3,,,,,,12261
001Hr000028Zdtn,"Olmsted County, MN",Minnesota,County,Nick Martino,166424,,Tier S,2.0,43.9952,-92.3814,3c5dc34b-bac2-4788-b6a4-b770e5707737,,,,,,,,,,,,,,,,,12435
001cv000009cAqr,"Stearns County, MN",Minnesota,County,Nick Martino,160977,Nurture,Tier S,2.0,45.5845,-94.5866,71f3051b-88ce-4858-a201-8e044eef585e,Closed Lost,,,Joe del Rosario,5/12/2025,4/17/2025,,,,,,,,,,,12828
001cv00000AuVkn,"County Of Blue Earth, MN",Minnesota,County,Nick Martino,69280,,Tier S,2.0,43.9505,-93.9878,b5daab4f-d84d-4e91-a1b0-aab8449e0ef0,,,,,,,,,1,2025-11-12,1,,,,,,19767
001cv00000AuWNb,"City Of Mountain Lake, MN",Minnesota,Municipality,Nick Martino,2000,,Tier 3,0.75,43.9388,-94.9297,122df3b5-09bb-432e-ad48-1f57af955c42,,,,,,,,,,,,,,,,,13036
001cv00000AuWNh,"Township Of Lanesburgh, MN",Minnesota,Municipality,Nick Martino,2003,,Tier 3,0.75,44.5033,-93.5914,c36491be-e606-4c3f-9d77-394d09261f50,,,,,,,,,,,,,,,,,12892
001cv00000AuWNi,"Township Of Solway, MN",Minnesota,Municipality,Nick Martino,2003,,Tier 3,0.75,47.5191,-95.1294,0f134e66-e42f-4512-8b26-36ec696a90f8,,,,,,,,,,,,,,,,,12909
001cv00000AuWNo,"City Of Hoyt Lakes, MN",Minnesota,Municipality,Nick Martino,2005,,Tier 3,0.75,47.5196,-92.1385,76a54a6c-03e3-44c5-bceb-1949f5ae819e,,,,,,,,,,,,,,,,,12989
001cv00000AuWNv,"City Of Waverly, MN",Minnesota,Municipality,Nick Martino,2006,,Tier 3,0.75,45.0643,-93.9679,468e1018-a3ce-47b9-ad4b-fe59534d2aec,,,,,,,,,,,,,,,,,12881
001cv00000AuWOA,"City Of Ortonville, MN",Minnesota,Municipality,Nick Martino,2011,,Tier 3,0.75,45.3048,-96.4451,0a772058-fba0-41cd-8a3b-fd38c0c9fbd1,,,,,,,,,,,,,,,,,12877
001cv00000AuWOI,"City Of Springfield, MN",Minnesota,Municipality,Nick Martino,2015,,Tier 3,0.75,44.2388,-94.9742,24be91cf-f597-45ed-aab9-eeb0f83a818e,,,,,,,,,,,,,,,,,12897
001cv00000AuWOJ,"City Of Eyota, MN",Minnesota,Municipality,Nick Martino,2015,,Tier 3,0.75,43.9885,-92.2291,5b095f94-c5f0-4476-ae6e-d60a75044d09,,,,,,,,,,,,,,,,,12869
001cv00000AuWOf,"Township Of Eckles, MN",Minnesota,Municipality,Nick Martino,2021,,Tier 3,0.75,43.9889,-91.6566,e03fe9f1-d9d6-48cd-8b84-6fdc5e1d8430,,,,,,,,,,,,,,,,,12899
001cv00000AuWPQ,"City Of Nisswa, MN",Minnesota,Municipality,Nick Martino,2032,,Tier 3,0.75,46.5205,-94.2886,54d910a9-fffe-45d0-b0e0-4a35cfc2ed13,,,,,,,,,,,,,,,,,12975
001cv00000AuWPx,"Township Of Marysville, MN",Minnesota,Municipality,Nick Martino,2038,,Tier 3,0.75,45.109,-93.9612,5c2d0a15-6ed9-4769-8fd3-99385cbe68cf,,,,,,,,,,,,,,,,,12969
001cv00000AuWXJ,"City Of Rice, MN",Minnesota,Municipality,Nick Martino,2053,,Tier 3,0.75,45.7529,-94.2223,f76c3794-21c0-49a6-91f9-38ba5f6f68d2,,,,,,,,,,,,,,,,,13176
001cv00000AuWXU,"Township Of Duluth, MN",Minnesota,Municipality,Nick Martino,2055,,Tier 3,0.75,46.9963,-91.8471,41345ac9-2d34-4d82-8ad3-23a1679cd404,,,,,,,,,,,,,,,,,13355
001cv00000AuWY0,"City Of Tracy, MN",Minnesota,Municipality,Nick Martino,2066,,Tier 3,0.75,44.2319,-95.6228,c5a4d748-3cd3-4286-a02a-fb6bd7efba85,,,,,,,,,,,,,,,,,13288
001cv00000AuWYZ,"City Of Cologne, MN",Minnesota,Municipality,Nick Martino,2075,,Tier 3,0.75,44.7689,-93.7806,5464b04b-bf59-40dc-a5cf-ef2b51aafe62,,,,,,,,,,,,,,,,,13360
001cv00000AuWYx,"City Of Clearwater, MN",Minnesota,Municipality,Nick Martino,2083,,Tier 3,0.75,45.4194,-94.0489,cf9627ba-9f2b-45d7-a780-ee27df878693,,,,,,,,,,,,,,,,,13251
001cv00000AuWZ6,"City Of Aitkin, MN",Minnesota,Municipality,Nick Martino,2087,,Tier 3,0.75,46.533,-93.7102,317d5c84-9448-48a2-b1a5-18ba9394883e,,,,,,,,,,,,,,,,,13438
001cv00000AuWZN,"Township Of Twin Lakes, MN",Minnesota,Municipality,Nick Martino,2092,,Tier 3,0.75,43.5597,-93.423,34f7e979-49e8-42de-95fd-d1da00a0157e,,,,,,,,,,,,,,,,,13398
001cv00000AuWZR,"Township Of Avon, MN",Minnesota,Municipality,Nick Martino,2093,,Tier 3,0.75,45.6468,-94.4479,78e6cbb2-b824-4761-8360-09b51aa09d57,,,,,,,,,,,,,,,,,13364
001cv00000AuWaG,"Township Of Detroit, MN",Minnesota,Municipality,Nick Martino,2110,,Tier 3,0.75,46.8628,-95.8847,6b7fe578-7ded-4313-bd94-e3664f109348,,,,,,,,,,,,,,,,,13454
001cv00000AuWb0,"Township Of Athens, MN",Minnesota,Municipality,Nick Martino,2121,,Tier 3,0.75,45.4455,-93.2472,c931936d-f4dc-41a5-aa03-0e18106d3a25,,,,,,,,,,,,,,,,,13066
001cv00000AuWbC,"City Of Howard Lake, MN",Minnesota,Municipality,Nick Martino,2125,,Tier 3,0.75,45.0613,-94.0743,98e06538-b1b9-4479-a452-deacf71e67d9,,,,,,,,,,,,,,,,,13052
001cv00000AuWbH,"Township Of Rochester, MN",Minnesota,Municipality,Nick Martino,2126,,Tier 3,0.75,44.0193,-92.4588,738fbe62-c8bd-43b0-a629-f2bdc769459f,,,,,,,,,,,,,,,,,13141
001cv00000AuWbL,"Township Of Baytown, MN",Minnesota,Municipality,Nick Martino,2129,,Tier 3,0.75,43.9889,-91.6566,e1b35ca7-6cc2-47d6-bc75-d63d44b1909d,,,,,,,,,,,,,,,,,13178
001cv00000AuWba,"Township Of Sunrise, MN",Minnesota,Municipality,Nick Martino,2133,,Tier 3,0.75,45.5469,-92.8549,67c843ac-8ad0-4e2d-9e31-6128e5ac9a3d,,,,,,,,,,,,,,,,,13091
001cv00000AuWcG,"Township Of St Wendel, MN",Minnesota,Municipality,Nick Martino,2145,,Tier 3,0.75,45.6663,-94.3774,2a6595fe-69a4-4a9f-bfd3-b2116cad84af,,,,,,,,,,,,,,,,,13224
001cv00000AuWcj,"Township Of Maple Lake, MN",Minnesota,Municipality,Nick Martino,2154,,Tier 3,0.75,45.2508,-93.9292,d6c8d4f3-753a-4adf-9ea2-dbc647f99c2c,,,,,,,,,,,,,,,,,13228
001cv00000AuWdX,"Township Of Dovre, MN",Minnesota,Municipality,Nick Martino,2168,,Tier 3,0.75,45.2066,-95.053,7fd7cd3e-457b-43ad-a53e-ef33cd6be7d9,,,,,,,,,,,,,,,,,13214
001cv00000AuWkA,"Township Of Lake Edward, MN",Minnesota,Municipality,Nick Martino,2171,,Tier 3,0.75,46.4975,-94.1909,5b577260-bb1e-4ff4-bb1a-46d89d58e24b,,,,,,,,,,,,,,,,,13387
001cv00000AuWpE,"City Of Maple Lake, MN",Minnesota,Municipality,Nick Martino,2177,,Tier 3,0.75,45.2299,-94.0039,619ae81f-7b1d-45d7-8efd-f0326132be10,,,,,,,,,,,,,,,,,13548
001cv00000AuWpr,"Township Of Canosia, MN",Minnesota,Municipality,Nick Martino,2187,,Tier 3,0.75,46.9006,-92.2309,eec17931-e66e-45cb-9e37-83ac1602e55b,,,,,,,,,,,,,,,,,13514
001cv00000AuWqi,"Township Of Crow Wing, MN",Minnesota,Municipality,Nick Martino,2204,,Tier 3,0.75,46.2797,-94.2933,def1c954-5fbf-4237-b966-d08fb87f1f0f,,,,,,,,,,,,,,,,,13533
001cv00000AuWqj,"City Of Winsted, MN",Minnesota,Municipality,Nick Martino,2205,,Tier 3,0.75,44.9639,-94.0475,dd603f27-a8ac-4f4b-b1c1-08656835c371,,,,,,,,,,,,,,,,,13491
001cv00000AuWr1,"City Of Lauderdale, MN",Minnesota,Municipality,Nick Martino,2212,,Tier 3,0.75,44.9986,-93.2058,25303569-c868-4669-85d7-d812b89e4e92,,,,,,,,,,,,,,,,,13609
001cv00000AuWrP,"Township Of Fish Lake, MN",Minnesota,Municipality,Nick Martino,2220,,Tier 3,0.75,43.8374,-95.0552,fc0f0a90-5adc-4b36-a67d-cf33df412a29,,,,,,,,,,,,,,,,,13570
001cv00000AuWrq,"City Of Hawley, MN",Minnesota,Municipality,Nick Martino,2233,,Tier 3,0.75,46.8808,-96.3167,bd836514-7d17-4dd8-bc79-37f679ac34fb,,,,,,,,,,,,,,,,,13629
001cv00000AuX5C,"Township Of Carlos, MN",Minnesota,Municipality,Nick Martino,2245,,Tier 3,0.75,45.9725,-95.2923,f236b034-3a4b-4e11-afc0-a767d9bade77,,,,,,,,,,,,,,,,,13660
001cv00000AuX5K,"Township Of Princeton, MN",Minnesota,Municipality,Nick Martino,2246,,Tier 3,0.75,45.57,-93.5816,12082045-3937-41ce-b202-81c7f32c7c71,,,,,,,,,,,,,,,,,13595
001cv00000AuX5X,"City Of St Bonifacius, MN",Minnesota,Municipality,Nick Martino,2250,,Tier 3,0.75,44.9055,-93.7475,ec25d3e0-fe47-4b37-a906-c9f1a291f964,,,,,,,,,,,,,,,,,13699
001cv00000AuX60,"City Of Arlington, MN",Minnesota,Municipality,Nick Martino,2260,,Tier 3,0.75,44.6083,-94.0805,1118e6a4-2523-4fe7-b0e6-634aaa2e03b3,,,,,,,,,,,,,,,,,13727
001cv00000AuX7Z,"Township Of Isanti, MN",Minnesota,Municipality,Nick Martino,2291,,Tier 3,0.75,45.4894,-93.2476,fc65974c-0f5d-4b66-b9b2-0399707b0b72,,,,,,,,,,,,,,,,,13839
001cv00000AuX7g,"City Of Gaylord, MN",Minnesota,Municipality,Nick Martino,2295,,Tier 3,0.75,44.5544,-94.2208,e8e2331a-2aef-480f-aed7-80df4dc8642f,,,,,,,,,,,,,,,,,13815
001cv00000AuX7h,"Township Of Lakewood, MN",Minnesota,Municipality,Nick Martino,2295,,Tier 3,0.75,46.9052,-91.9798,61b03d5b-9276-46c6-a793-e960b38fef7f,,,,,,,,,,,,,,,,,13790
001cv00000AuX7v,"City Of Excelsior, MN",Minnesota,Municipality,Nick Martino,2299,,Tier 3,0.75,44.9033,-93.5663,64a93bfa-b27c-4861-9ca4-ceeec2dca136,,,,,,,,,,,,,,,,,13723
001cv00000AuX8g,"City Of Crosby, MN",Minnesota,Municipality,Nick Martino,2314,,Tier 3,0.75,46.4822,-93.9578,1cdad7d9-6e8e-4a15-9b03-df17b8dd8368,,,,,,,,,,,,,,,,,13997
001cv00000AuX9A,"Township Of Stanford, MN",Minnesota,Municipality,Nick Martino,2327,,Tier 3,0.75,45.4462,-93.4074,f7348d8b-5e89-410c-8e22-8d2d0620d121,,,,,,,,,,,,,,,,,13906
001cv00000AuX9J,"Township Of Ravenna, MN",Minnesota,Municipality,Nick Martino,2330,,Tier 3,0.75,44.6799,-92.7547,20c96733-9735-48b2-bc86-9ec3a58c7bab,,,,,,,,,,,,,,,,,13891
001cv00000AuX9i,"City Of Olivia, MN",Minnesota,Municipality,Nick Martino,2337,,Tier 3,0.75,44.7764,-94.9957,2d1bf471-8eb9-45d8-a37c-0ccafcd4a6d6,,,,,,,,,,,,,,,,,13868
001cv00000AuXB8,"City Of Madelia, MN",Minnesota,Municipality,Nick Martino,2374,,Tier 3,0.75,44.0508,-94.4183,3f6a5e34-9aa9-4079-a290-9b24682c6485,,,,,,,,,,,,,,,,,14026
001cv00000AuXBI,"City Of Sandstone, MN",Minnesota,Municipality,Nick Martino,2379,,Tier 3,0.75,46.1311,-92.8674,c44074a2-a4e4-4718-93dd-71a6535a9fca,,,,,,,,,,,,,,,,,13952
001cv00000AuXEd,"City Of Paynesville, MN",Minnesota,Municipality,Nick Martino,2449,,Tier 3,0.75,45.3768,-94.7236,a4779200-7886-40b7-9a79-96bd2c026939,,,,,,,,,,,,,,,,,14035
001cv00000AuXN8,"City Of Lexington, MN",Minnesota,Municipality,Nick Martino,2460,,Tier 3,0.75,45.136,-93.1702,70ee3858-82d8-49aa-9b18-0e080108f7c9,,,,,,,,,,,,,,,,,14091
001cv00000AuXOH,"Township Of Oronoco, MN",Minnesota,Municipality,Nick Martino,2484,,Tier 3,0.75,44.1661,-92.5349,ef479579-daf3-42a1-afde-44bfc1c02a29,,,,,,,,,,,,,,,,,14127
001cv00000AuXOQ,"City Of Wabasha, MN",Minnesota,Municipality,Nick Martino,2487,,Tier 3,0.75,44.3755,-92.0236,9649e527-b2b1-4a2d-9e70-d3849d0b91d4,,,,,,,,,,,,,,,,,13994
001cv00000AuXOa,"City Of Le Center, MN",Minnesota,Municipality,Nick Martino,2491,,Tier 3,0.75,44.3894,-93.7302,5d1c0c8d-2f11-43e1-b606-f1a54f1fa76f,,,,,,,,,,,,,,,,,14073
001cv00000AuXP5,"Town Of Cambridge, MN",Minnesota,Municipality,Nick Martino,2504,,Tier 3,0.75,45.5657,-93.2259,ece857cd-a538-443a-b41d-6dedea35c6fd,,,,,,,,,,,,,,,,,14167
001cv00000AuXTy,"City Of Lake Crystal, MN",Minnesota,Municipality,Nick Martino,2543,,Tier 3,0.75,44.1049,-94.2186,67768759-7ca3-44f6-a5de-169297feffbc,,,,,,,,,,,,,,,,,14303
001cv00000AuXUG,"City Of Mayer, MN",Minnesota,Municipality,Nick Martino,2552,,Tier 3,0.75,44.885,-93.8877,05e3c263-e62b-4e0c-9f4f-5ca9931b6fa8,,,,,,,,,,,,,,,,,14264
001cv00000AuXUL,"Township Of Corinna, MN",Minnesota,Municipality,Nick Martino,2555,,Tier 3,0.75,45.2838,-94.0582,74d56f13-f009-4d37-abfe-3fe08f71d931,,,,,,,,,,,,,,,,,14302
001cv00000AuXUS,"Township Of Blue Hill, MN",Minnesota,Municipality,Nick Martino,2558,,Tier 3,0.75,45.5013,-93.6546,6ef4d2ea-59ca-45f0-946b-7a75394da0de,,,,,,,,,,,,,,,,,14270
001cv00000AuXUh,"City Of Moose Lake, MN",Minnesota,Municipality,Nick Martino,2565,,Tier 3,0.75,46.4514,-92.7667,e110e7e3-3e74-48d5-b3eb-9f1cb2d49579,,,,,,,,,,,,,,,,,14342
001cv00000AuXUx,"Township Of Palmer, MN",Minnesota,Municipality,Nick Martino,2570,,Tier 3,0.75,45.4868,-93.9593,ef23984a-763d-48c6-af4c-9f2be1bf07b9,,,,,,,,,,,,,,,,,14261
001cv00000AuXV5,"Township Of Silver Creek, MN",Minnesota,Municipality,Nick Martino,2573,,Tier 3,0.75,45.3099,-93.984,969ddfef-f4a5-4ae9-9096-5ea88eb84ba4,,,,,,,,,,,,,,,,,14271
001cv00000AuXV7,"Township Of Haven, MN",Minnesota,Municipality,Nick Martino,2574,,Tier 3,0.75,45.523,-94.0874,fbf16a05-682e-4f47-ab52-d5b83911c9e9,,,,,,,,,,,,,,,,,14276
001cv00000AuXVQ,"City Of Pelican Rapids, MN",Minnesota,Municipality,Nick Martino,2582,,Tier 3,0.75,46.5713,-96.0835,08f330f5-53ce-4000-83c8-de9d9d291220,,,,,,,,,,,,,,,,,14350
001cv00000AuXWI,"City Of Osseo, MN",Minnesota,Municipality,Nick Martino,2606,,Tier 3,0.75,45.1194,-93.4025,4d76151f-8650-452e-bbb7-37a45a1b722c,,,,,,,,,,,,,,,,,14295
001cv00000AuXew,"City Of Cohasset, MN",Minnesota,Municipality,Nick Martino,2698,,Tier 3,0.75,47.264,-93.6222,1747c2c1-381d-4adf-8c16-fe4a4043d0f6,,,,,,,,,,,,,,,,,14504
001cv00000AuXey,"Township Of Grand Lake, MN",Minnesota,Municipality,Nick Martino,2700,,Tier 3,0.75,46.8666,-92.468,3a953c6c-f317-4bdc-bdae-6c53e4ed991a,,,,,,,,,,,,,,,,,14437
001cv00000AuXfI,"City Of Granite Falls, MN",Minnesota,Municipality,Nick Martino,2713,,Tier 3,0.75,44.81,-95.5456,27e481fe-c62d-40f6-adf8-153e01b7ff40,,,,,,,,,,,,,,,,,14456
001cv00000AuXfX,"City Of Foley, MN",Minnesota,Municipality,Nick Martino,2720,,Tier 3,0.75,45.6647,-93.9097,9992c5bb-1908-47fc-8a61-c8815804c559,,,,,,,,,,,,,,,,,14460
001cv00000AuXfp,"City Of Roseau, MN",Minnesota,Municipality,Nick Martino,2730,,Tier 3,0.75,48.8461,-95.7628,926a930b-84c3-43c8-9b57-9bbe400b67c7,,,,,,,,,,,,,,,,,14562
001cv00000AuXhO,"City Of Cokato, MN",Minnesota,Municipality,Nick Martino,2775,,Tier 3,0.75,45.0777,-94.1901,7da9a548-cb6e-4c78-b08f-ee21434f32e4,,,,,,,,,,,,,,,,,14538
001cv00000AuXhV,"Township Of Wakefield, MN",Minnesota,Municipality,Nick Martino,2779,,Tier 3,0.75,45.4661,-94.4726,d2f48f8e-18cf-4559-9d40-3293df96bdbd,,,,,,,,,,,,,,,,,14610
001cv00000AuXi5,"City Of Barnesville, MN",Minnesota,Municipality,Nick Martino,2786,,Tier 3,0.75,46.6533,-96.42,6d13dd98-46a5-4c6d-a734-ddb007352630,,,,,,,,,,,,,,,,,14547
001cv00000AuXir,"City Of Albany, MN",Minnesota,Municipality,Nick Martino,2804,,Tier 3,0.75,45.63,-94.57,499e3ba6-ed4b-43c1-ba84-aadd48111dba,,,,,,,,,,,,,,,,,14678
001cv00000AuXjP,"City Of Caledonia, MN",Minnesota,Municipality,Nick Martino,2822,,Tier 3,0.75,43.6347,-91.4968,db016a17-4c54-41e7-8bc5-a3f8aa5385af,,,,,,,,,,,,,,,,,14815
001cv00000AuXjm,"City Of Dodge Center, MN",Minnesota,Municipality,Nick Martino,2834,,Tier 3,0.75,44.0275,-92.8552,af8fd6b0-a6ca-42cb-b2ad-8d24c3ee8562,,,,,,,,,,,,,,,,,14683
001cv00000AuXjz,"Township Of Cascade, MN",Minnesota,Municipality,Nick Martino,2842,,Tier 3,0.75,44.0928,-92.4851,b0ed97c2-3f29-496a-99cc-73a59272a3e3,,,,,,,,,,,,,,,,,14701
001cv00000AuXkA,"Township Of Pokegama, MN",Minnesota,Municipality,Nick Martino,2845,,Tier 3,0.75,45.8823,-93.0542,2b5208c7-6877-4baf-80f3-7661bcd2c891,,,,,,,,,,,,,,,,,14717
001cv00000AuXke,"City Of Mountain Iron, MN",Minnesota,Municipality,Nick Martino,2859,,Tier 3,0.75,47.5324,-92.6235,7d180f50-1aea-4d45-91c8-be78da10e420,,,,,,,,,,,,,,,,,14766
001cv00000AuXm2,"City Of Greenfield, MN",Minnesota,Municipality,Nick Martino,2895,,Tier 3,0.75,45.1033,-93.6914,f3f5a702-615a-4017-a32b-17dffcdf69da,,,,,,,,,,,,,,,,,14837
001cv00000AuXmA,"Township Of Franklin, MN",Minnesota,Municipality,Nick Martino,2902,,Tier 3,0.75,44.5312,-94.8808,807cc49b-c1fc-46e6-8f22-4e1fb9523b0f,,,,,,,,,,,,,,,,,14774
001cv00000AuXmz,"Township Of Brockway, MN",Minnesota,Municipality,Nick Martino,2926,,Tier 3,0.75,45.727,-94.3331,ffa2ff17-f6bc-44de-85e3-fe67c33cdaf2,,,,,,,,,,,,,,,,,14895
001cv00000AuXnW,"City Of Afton, MN",Minnesota,Municipality,Nick Martino,2949,,Tier 3,0.75,44.9027,-92.7835,13924d98-0f7a-4bb6-bec5-3c2ae254f09a,,,,,,,,,,,,,,,,,14949
001cv00000AuXnb,"Township Of Sylvan, MN",Minnesota,Municipality,Nick Martino,2953,,Tier 3,0.75,46.335,-94.4067,188d4b8a-d8f8-4077-84f7-a7a9b79608a3,,,,,,,,,,,,,,,,,14858
001cv00000AuXnc,"Township Of New London, MN",Minnesota,Municipality,Nick Martino,2953,,Tier 3,0.75,45.276,-94.9698,33c3d7c8-2293-44a4-8e73-b19d74b9ff6b,,,,,,,,,,,,,,,,,14883
001cv00000AuXzX,"Township Of Cedar Lake, MN",Minnesota,Municipality,Nick Martino,3078,,Tier 3,0.75,44.5872,-93.4402,13ed0dea-62b8-4af9-95e9-6bd13624978d,,,,,,,,,,,,,,,,,15008
001cv00000AuY2l,"County Of Traverse, MN",Minnesota,County,Nick Martino,3286,,Tier 3,0.75,45.803,-96.3651,fb474e15-b232-4e16-830d-16ad71690cc4,,,,,,,,,,,,,,,,,15599
001cv00000AuY2m,"City Of Eagle Lake, MN",Minnesota,Municipality,Nick Martino,3286,,Tier 3,0.75,44.1639,-93.8813,83c33a22-fe4c-4f96-94a5-a5aac700e813,,,,,,,,,,,,,,,,,15847
001cv00000AuY2n,"City Of Rush City, MN",Minnesota,Municipality,Nick Martino,3286,,Tier 3,0.75,45.6855,-92.9655,9bee5d48-fb30-4a42-816c-fa2b5127ba56,,,,,,,,,,,,,,,,,15600
001cv00000AuY5s,"City Of Breckenridge, MN",Minnesota,Municipality,Nick Martino,3398,,Tier 3,0.75,46.2628,-96.5869,c78126b9-4951-4af7-b909-e4bdd4ba83fa,,,,,,,,,,,,,,,,,15626
001cv00000AuY5w,"Township Of Watab, MN",Minnesota,Municipality,Nick Martino,3399,,Tier 3,0.75,45.6764,-94.1811,fb869d93-3ad6-46e0-b11f-f7576fbd3012,,,,,,,,,,,,,,,,,15602
001cv00000AuYBQ,"City Of Proctor, MN",Minnesota,Municipality,Nick Martino,3095,,Tier 3,0.75,46.7472,-92.2255,2a6eb56c-0b23-465c-9c8d-42877fead4ef,,,,,,,,,,,,,,,,,15249
001cv00000AuYC1,"Township Of White, MN",Minnesota,Municipality,Nick Martino,3115,,Tier 3,0.75,47.5292,-92.238,5e11b85d-32de-456d-94cd-6f9426b00056,,,,,,,,,,,,,,,,,15239
001cv00000AuYCO,"Township Of Bemidji, MN",Minnesota,Municipality,Nick Martino,3128,,Tier 3,0.75,47.4716,-94.8827,9351165b-0a25-4485-8acb-c7c25bd3b7ed,,,,,,,,,,,,,,,,,15139
001cv00000AuYDD,"Township Of Empire, MN",Minnesota,Municipality,Nick Martino,3158,,Tier 3,0.75,44.6632,-93.1367,1fa5db02-22fc-4107-befe-8476b79c13ef,,,,,,,,,,,,,,,,,15297
001cv00000AuYEP,"Township Of Alexandria, MN",Minnesota,Municipality,Nick Martino,2989,,Tier 3,0.75,45.7561,-95.424,f35baeb9-4871-4a6c-8c0d-c3c93a2ed321,,,,,,,,,,,,,,,,,15258
001cv00000AuYEZ,"Township Of Lent, MN",Minnesota,Municipality,Nick Martino,2993,,Tier 3,0.75,43.9889,-91.6566,eea99534-6a74-4350-b982-54132df7342a,,,,,,,,,,,,,,,,,15375
001cv00000AuYEj,"City Of Chatfield, MN",Minnesota,Municipality,Nick Martino,2997,,Tier 3,0.75,43.8416,-92.1892,c36616cf-8fbc-4bad-a632-366f1b342069,,,,,,,,,,,,,,,,,15311
001cv00000AuYEp,"City Of Staples, MN",Minnesota,Municipality,Nick Martino,2998,,Tier 3,0.75,46.3557,-94.7948,7cdf9383-0a2d-40aa-a9ea-2594448e24c9,,,,,,,,,,,,,,,,,15261
001cv00000AuYGZ,"City Of Milaca, MN",Minnesota,Municipality,Nick Martino,3057,,Tier 3,0.75,45.7558,-93.6544,91a421e7-23c1-48f1-b478-1d5e9ce91926,,,,,,,,,,,,,,,,,15113
001cv00000AuYI0,"City Of Jackson, MN",Minnesota,Municipality,Nick Martino,3310,,Tier 3,0.75,43.6209,-94.9868,1bfa8525-22f9-4396-acae-e29e04123633,,,,,,,,,,,,,,,,,15709
001cv00000AuYIO,"Township Of Monticello, MN",Minnesota,Municipality,Nick Martino,3324,,Tier 3,0.75,45.3055,-93.7941,5b88addd-b9a1-4163-b9e9-ca7a91a82be8,,,,,,,,,,,,,,,,,15785
001cv00000AuYJZ,"City Of Annandale, MN",Minnesota,Municipality,Nick Martino,3370,,Tier 3,0.75,45.2611,-94.1242,310e8644-88f4-4195-b26c-a9bdc8ff4dd7,,,,,,,,,,,,,,,,,15701
001cv00000AuYJq,"City Of Montgomery, MN",Minnesota,Municipality,Nick Martino,3379,,Tier 3,0.75,44.4383,-93.5813,23cc3fc8-593b-4395-806c-d37a5fd1ab41,,,,,,,,,,,,,,,,,15824
001cv00000AuYJr,"City Of Benson, MN",Minnesota,Municipality,Nick Martino,3379,,Tier 3,0.75,45.315,-95.6,51c95623-0bc7-47af-bf7a-d7cf4bd7d2b3,,,,,,,,,,,,,,,,,15807
001cv00000AuYK4,"Township Of Rockford, MN",Minnesota,Municipality,Nick Martino,3390,,Tier 3,0.75,45.0873,-93.7415,9612acb7-3381-40ff-be78-b30b1a52ad81,,,,,,,,,,,,,,,,,15924
001cv00000AuYLI,"City Of Sleepy Eye, MN",Minnesota,Municipality,Nick Martino,3428,,Tier 3,0.75,44.2981,-94.7264,b2858501-d241-42f3-bbb1-2769de7e2e19,,,,,,,,,,,,,,,,,15901
001cv00000AuYLl,"Township Of Bradford, MN",Minnesota,Municipality,Nick Martino,3450,,Tier 3,0.75,45.5225,-93.3688,19e62861-2977-4398-8507-26e7ee6d7178,,,,,,,,,,,,,,,,,15853
001cv00000AuYLz,"City Of Eveleth, MN",Minnesota,Municipality,Nick Martino,3461,,Tier 3,0.75,47.4624,-92.5399,8bda5203-d7c7-4e55-a933-d1129660840f,,,,,,,,,,,,,,,,,15918
001cv00000AuYMu,"Township Of Spring Lake, MN",Minnesota,Municipality,Nick Martino,3499,,Tier 3,0.75,47.6424,-93.868,ae081fac-a2ef-45e3-b14d-d79eb2eb3403,,,,,,,,,,,,,,,,,15354
001cv00000AuYMv,"City Of Plainview, MN",Minnesota,Municipality,Nick Martino,3500,,Tier 3,0.75,44.165,-92.1716,8d358e4f-9c56-4bb5-98bc-14c45425a016,,,,,,,,,,,,,,,,,15424
001cv00000AuYO8,"City Of Pine City, MN",Minnesota,Municipality,Nick Martino,3197,,Tier 3,0.75,45.8229,-92.9703,e1dcdd40-cbdd-4d56-b54d-4846321e6b4d,,,,,,,,,,,,,,,,,15432
001cv00000AuYOk,"Township Of Collegeville, MN",Minnesota,Municipality,Nick Martino,3221,,Tier 3,0.75,45.5939,-94.3641,0df6913c-1a1e-4e13-9b6d-4c54c5252ecf,,,,,,,,,,,,,,,,,15376
001cv00000AuYOv,"City Of Ely, MN",Minnesota,Municipality,Nick Martino,3233,,Tier 3,0.75,47.9032,-91.8671,ef89ed85-d5cd-4c61-865f-1ce30ba9edda,,,,,,,,,6,2026-05-18,6,,,,,,15303
001cv00000AuYPG,"City Of Blue Earth, MN",Minnesota,Municipality,Nick Martino,3248,,Tier 3,0.75,43.6376,-94.1024,16115ca1-dd53-4378-929c-b7ef0628f0e7,,,,,,,,,,,,,,,,,15562
001cv00000AuYQB,"Township Of Harris, MN",Minnesota,Municipality,Nick Martino,3285,,Tier 3,0.75,45.5861,-92.9746,06bc16bb-c3ca-4f63-a732-7d5564db655c,,,,,,,,,,,,,,,,,15512
001cv00000AuYRc,"Township Of New Market, MN",Minnesota,Municipality,Nick Martino,3560,,Tier 3,0.75,44.5717,-93.354,1758428e-e611-4324-a26e-81e29a4f18a6,,,,,,,,,,,,,,,,,15490
001cv00000AuYRp,"City Of Perham, MN",Minnesota,Municipality,Nick Martino,3572,,Tier 3,0.75,46.5943,-95.5729,6cf1865c-6e35-410c-a9d7-367a4268e593,,,,,,,,,,,,,,,,,15617
001cv00000AuYRv,"City Of St Augusta, MN",Minnesota,Municipality,Nick Martino,3574,,Tier 3,0.75,45.4532,-94.1999,c137c7f1-ff56-4404-82c8-617e369fac9e,,,,,,,,,,,,,,,,,15656
001cv00000AuYSJ,"City Of Hanover, MN",Minnesota,Municipality,Nick Martino,3594,,Tier 3,0.75,45.1558,-93.6664,460d3732-066b-4cc3-aac1-c4f4d3655f50,,,,,,,,,,,,,,,,,15593
001cv00000AuYSX,"Township Of Orrock, MN",Minnesota,Municipality,Nick Martino,3607,,Tier 3,0.75,45.4441,-93.7359,657e5be9-cd06-4a32-811a-45423df8502e,,,,,,,,,,,,,,,,,15951
001cv00000AuYSb,"City Of Melrose, MN",Minnesota,Municipality,Nick Martino,3609,,Tier 3,0.75,45.6747,-94.8075,5457d95c-ef6b-41d7-8b00-0d6103a2025a,,,,,,,,,,,,,,,,,15919
001cv00000AuYSh,"City Of Mora, MN",Minnesota,Municipality,Nick Martino,3617,,Tier 3,0.75,45.8769,-93.2938,a6b96a4a-8f1b-4f71-ac90-d96fd56fd2ac,,,,,,,,,,,,,,,,,16026
001cv00000AuYSm,"City Of Two Harbors, MN",Minnesota,Municipality,Nick Martino,3621,,Tier 3,0.75,47.0227,-91.6707,95a44607-90cb-421d-bd8e-5019f42a9c12,,,,,,,,,,,,,,,,,16120
001cv00000AuYZ1,"County Of Red Lake, MN",Minnesota,County,Nick Martino,3933,,Tier 3,0.75,47.8763,-95.0169,4b742c38-b730-4dfb-9d97-576dee46f56a,,,,,,,,,,,,,,,,,16192
001cv00000AuYaX,"Township Of Marion, MN",Minnesota,Municipality,Nick Martino,4079,,Tier 3,0.75,43.9765,-92.3616,e89d6885-4d93-4318-94e0-3122a549b752,,,,,,,,,,,,,,,,,16267
001cv00000AuYfR,"City Of Cannon Falls, MN",Minnesota,Municipality,Nick Martino,4237,,Tier 3,0.75,44.5069,-92.9055,d4f27ac5-8991-4ff6-8edb-b2422c7fe14a,,,,,,,,,,,,,,,,,16769
001cv00000AuYfc,"City Of Zumbrota, MN",Minnesota,Municipality,Nick Martino,3796,,Tier 3,0.75,44.2941,-92.6691,283f7226-572c-4d7a-a1e5-897b17a2c0fb,,,,,,,,,,,,,,,,,16155
001cv00000AuYgB,"Lake Of The Woods County, MN",Minnesota,County,Nick Martino,3823,,Tier 3,0.75,48.6944,-94.9265,4e2dac46-f91f-4699-94ca-35a1387797f9,,,,,,,,,,,,,,,,,16079
001cv00000AuYgR,"City Of Deephaven, MN",Minnesota,Municipality,Nick Martino,3834,,Tier 3,0.75,44.9297,-93.5225,32a2038e-a71d-43c4-8c7f-d9d8d27b6a56,,,,,,,,,,,,,,,,,16087
001cv00000AuYgX,"City Of Pine Island, MN",Minnesota,Municipality,Nick Martino,3841,,Tier 3,0.75,44.2014,-92.6463,c56fbc44-273e-4865-8bfc-0f1e3bc2a1c5,,,,,,,,,,,,,,,,,16183
001cv00000AuYgY,"City Of Montrose, MN",Minnesota,Municipality,Nick Martino,3841,,Tier 3,0.75,45.0694,-93.9125,0909f2e6-3b5e-436f-8dec-b262935ad405,,,,,,,,,,,,,,,,,16075
001cv00000AuYhJ,"City Of Bayport, MN",Minnesota,Municipality,Nick Martino,3885,,Tier 3,0.75,45.0189,-92.7778,9bde02a6-e2bd-463a-b70b-486fc12afff9,,,,,,,,,,,,,,,,,16137
001cv00000AuYhf,"City Of Norwood Young America, MN",Minnesota,Municipality,Nick Martino,3896,,Tier 3,0.75,44.7736,-93.9216,fbe2898f-fe35-433e-8ecd-4337e516325b,,,,,,,,,,,,,,,,,16139
001cv00000AuYka,"City Of Centerville, MN",Minnesota,Municipality,Nick Martino,3948,,Tier 3,0.75,45.163,-93.0558,89d5517a-c0cf-40fa-aed5-5f26f215d466,,,,,,,,,,,,,,,,,16548
001cv00000AuYkq,"Township Of West Lakeland, MN",Minnesota,Municipality,Nick Martino,3960,,Tier 3,0.75,44.9744,-92.8287,2989b1c3-bbfc-4642-9f29-8a5a0cc60f2a,,,,,,,,,,,,,,,,,16487
001cv00000AuYkv,"City Of Scandia, MN",Minnesota,Municipality,Nick Martino,3963,,Tier 3,0.75,45.2534,-92.8063,8d5ad3d2-352d-4537-8ce8-2287f9e5878a,,,,,,,,,,,,,,,,,16435
001cv00000AuYkw,"City Of Grant, MN",Minnesota,Municipality,Nick Martino,3965,,Tier 3,0.75,45.0844,-92.9105,7e0be384-b947-47ec-aada-62cffff530a9,,,,,,,,,,,,,,,,,16499
001cv00000AuYlN,"City Of St Charles, MN",Minnesota,Municipality,Nick Martino,3989,,Tier 3,0.75,43.9694,-92.0642,9f9c872d-4b8a-4975-8c6b-5dc7c1462ea5,,,,,,,,,,,,,,,,,16615
001cv00000AuYno,"City Of Rice Lake, MN",Minnesota,Municipality,Nick Martino,4101,,Tier 3,0.75,46.9091,-92.0903,b5e34e70-7e79-497b-8fbc-9bdc15dcb738,,,,,,,,,,,,,,,,,16783
001cv00000AuYoD,"City Of Park Rapids, MN",Minnesota,Municipality,Nick Martino,4122,,Tier 3,0.75,46.9222,-95.0586,3a185c45-68aa-4ff6-9260-971067f7bd2b,,,,,,,,,,,,,,,,,16738
001cv00000AuYoV,"City Of Goodview, MN",Minnesota,Municipality,Nick Martino,4138,,Tier 3,0.75,44.0625,-91.6957,9612af1a-ced4-43bc-b554-1aa9a28a2aa3,,,,,,,,,,,,,,,,,16677
001cv00000AuYof,"County Of Kittson, MN",Minnesota,County,Nick Martino,4146,,Tier 3,0.75,48.7563,-96.8654,b1446c17-fa28-408d-83bf-2c35adcc7998,,,,,,,,,,,,,,,,,16786
001cv00000AuYos,"City Of Pipestone, MN",Minnesota,Municipality,Nick Martino,4160,,Tier 3,0.75,43.9986,-96.3128,1ec71bcf-c3cf-4e99-9014-cfb72eb45f3e,,,,,,,,,,,,,,,,,16616
001cv00000AuYp9,"City Of Le Sueur, MN",Minnesota,Municipality,Nick Martino,4178,,Tier 3,0.75,44.4599,-93.9114,2bf98c86-6d59-43b6-a9b0-1398f84f3dca,,,,,,,,,18,2025-09-29,18,,,,,,16735
001cv00000AuYpZ,"City Of Cold Spring, MN",Minnesota,Municipality,Nick Martino,4205,,Tier 3,0.75,45.4536,-94.4278,66e12cbd-e97b-4cc5-b892-2b0b7ae03aa6,,,,,,,,,,,,,,,,,16778
001cv00000AuYq7,"City Of Columbus, MN",Minnesota,Municipality,Nick Martino,4231,,Tier 3,0.75,45.2652,-93.0502,82accd34-9840-421f-b968-f2744fedb767,,,,,,,,,,,,,,,,,16284
001cv00000AuYrV,"City Of Long Prairie, MN",Minnesota,Municipality,Nick Martino,3697,,Tier 3,0.75,45.9747,-94.8656,311a50ac-e83a-4c13-b0fd-96dea54f5cc5,,,,,,,,,,,,,,,,,16475
001cv00000AuYrY,"Township Of Northern, MN",Minnesota,Municipality,Nick Martino,3699,,Tier 3,0.75,43.9889,-91.6566,8a2c736d-31ea-4947-9f76-8ca0cc2b66d0,,,,,,,,,,,,,,,,,16490
001cv00000AuYra,"City Of Independence, MN",Minnesota,Municipality,Nick Martino,3701,,Tier 3,0.75,45.0252,-93.7075,448899d3-626a-4919-bae0-8fb642e1b315,,,,,,,,,2,2026-01-22,,,,,2,,16405
001cv00000AuYvQ,"Township Of La Grand, MN",Minnesota,Municipality,Nick Martino,4319,,Tier 3,0.75,45.904,-95.4504,ed8d24db-b873-49b3-a18c-1dc2950bc7a1,,,,,,,,,,,,,,,,,16942
001cv00000AuYvZ,"City Of Newport, MN",Minnesota,Municipality,Nick Martino,4328,,Tier 3,0.75,44.8669,-92.9998,aecf6595-d1db-4cb3-a140-5dbbe2decc0a,,,,,,,,,,,,,,,,,16889
001cv00000AuYvh,"City Of Wadena, MN",Minnesota,Municipality,Nick Martino,4335,,Tier 3,0.75,46.4422,-95.1361,d3ed261c-6133-42cc-984c-72ebba79e4f6,,,,,,,,,,,,,,,,,16950
001cv00000AuYwL,"City Of Wayzata, MN",Minnesota,Municipality,Nick Martino,4378,Open Opportunity,Tier 3,0.75,44.9741,-93.5066,ba8a44fc-b46d-48f8-8348-39239fe65968,Open,Demo,Mid Funnel,Nick Martino,3/26/2026,2/17/2026,,,3,2026-03-18,3,,,,,,16893
001cv00000AuYzi,"City Of Nowthen, MN",Minnesota,Municipality,Nick Martino,4537,,Tier 3,0.75,45.328,-93.4702,29c2596e-073a-4ac7-9a04-4f7aa0255620,,,,,,,,,,,,,,,,,20013
001cv00000AuZ81,"County Of Mahnomen, MN",Minnesota,County,Nick Martino,5414,,Tier 3,0.75,47.3173,-95.9655,fdb29b44-f9c3-4e13-af9e-182c0e8ea99f,,,,,,,,,,,,,,,,,17116
001cv00000AuZBP,"County Of Grant, MN",Minnesota,County,Nick Martino,6153,,Tier 3,0.75,45.0844,-92.9105,8cb6f726-c526-4f9e-95e8-d1d2643727d7,,,,,,,,,,,,,,,,,17074
001cv00000AuZCT,"County Of Lac Qui Parle, MN",Minnesota,County,Nick Martino,6684,,Tier 3,0.75,45.0005,-95.9061,439537bd-db60-45ed-a714-65e0ea17cca9,,,,,,,,,,,,,,,,,17271
001cv00000AuZIC,"City Of Lindstrom, MN",Minnesota,Municipality,Nick Martino,4956,,Tier 3,0.75,45.3894,-92.848,62833139-9396-4b1d-9769-421b6f1e263a,,,,,,,,,,,,,,,,,17429
001cv00000AuZIJ,"Township Of Livonia, MN",Minnesota,Municipality,Nick Martino,6295,,Tier 3,0.75,45.4436,-93.5524,6d3a2ab1-064b-463e-aba8-7a589111921f,,,,,,,,,,,,,,,,,17177
001cv00000AuZIX,"County Of Wilkin, MN",Minnesota,County,Nick Martino,6395,,Tier 3,0.75,46.4087,-96.5018,d9e7b545-008a-4e78-9386-3cd37e8453fb,,,,,,,,,,,,,,,,,17113
001cv00000AuZIb,"County Of Norman, MN",Minnesota,County,Nick Martino,6416,,Tier 3,0.75,47.3417,-96.5313,d0d7a981-f72b-4642-aad6-2a5b28b53e40,,,,,,,,,,,,,,,,,17132
001cv00000AuZJu,"City Of Credit River, MN",Minnesota,Municipality,Nick Martino,5551,,Tier 3,0.75,44.6701,-93.359,caea3011-3917-49ee-853b-73707b897812,,,,,,,,,,,,,,,,,17320
001cv00000AuZJy,"County Of Lincoln, MN",Minnesota,County,Nick Martino,5567,,Tier 3,0.75,44.4507,-96.3226,51d40c72-c486-41a2-a17f-8c9598058201,,,,,,,,,,,,,,,,,17415
001cv00000AuZK2,"County Of Cook, MN",Minnesota,County,Nick Martino,5617,,Tier 3,0.75,47.8524,-92.6896,9cbd6b44-96d5-42fa-b727-4c4c8e9b1622,,,,,,,,,,,,,,,,,17276
001cv00000AuZLo,"City Of Watertown, MN",Minnesota,Municipality,Nick Martino,4803,,Tier 3,0.75,44.9636,-93.8472,75e532b9-6ea2-4840-8666-bb0b549080b8,,,,,,,,,,,,,,,,,17356
001cv00000AuZLw,"City Of Lonsdale, MN",Minnesota,Municipality,Nick Martino,4809,,Tier 3,0.75,44.4802,-93.4286,69b2b667-e5dd-4306-a44b-8bf276022536,,,,,,,,,,,,,,,,,17321
001cv00000AuZM5,"City Of Windom, MN",Minnesota,Municipality,Nick Martino,4816,,Tier 3,0.75,43.8727,-95.1114,b48cd9b1-6dce-4f12-9027-2b788c1494ef,,,,,,,,,,,,,,,,,17318
001cv00000AuZMl,"Township Of Chisago Lake, MN",Minnesota,Municipality,Nick Martino,4860,,Tier 3,0.75,45.4343,-92.8035,0dc514e5-bc7b-4b1d-a370-3cdcce2796b7,,,,,,,,,,,,,,,,,17443
001cv00000AuZN7,"City Of Princeton, MN",Minnesota,Municipality,Nick Martino,4883,,Tier 3,0.75,45.57,-93.5816,22fbed50-c40b-4ad2-ac9b-ae882cc40884,,,,,,,,,,,,,,,,,17497
001cv00000AuZNg,"City Of Elko New Market, MN",Minnesota,Municipality,Nick Martino,4917,,Tier 3,0.75,44.5647,-93.3269,60c9d74a-9c9a-46cc-9a7f-a3f9b6223bd0,,,,,,,,,,,,,,,,,17388
001cv00000AuZNp,"City Of Luverne, MN",Minnesota,Municipality,Nick Martino,4934,,Tier 3,0.75,43.6555,-96.2025,6c372fd1-c71f-4e50-864f-861aaf903224,,,,,,,,,,,,,,,,,17414
001cv00000AuZQh,"Township Of Baldwin, MN",Minnesota,Municipality,Nick Martino,7248,,Tier 3,0.75,45.5016,-93.5932,31a47837-436d-4efa-8071-96445133df23,,,,,,,,,,,,,,,,,17507
001cv00000AuZRz,"City Of Becker, MN",Minnesota,Municipality,Nick Martino,4970,,Tier 3,0.75,45.3937,-93.8703,6a1b539a-c895-457c-b33c-78861f24526d,,,,,,,,,,,,,,,,,17515
001cv00000AuZSI,"City Of Circle Pines, MN",Minnesota,Municipality,Nick Martino,5005,,Tier 3,0.75,45.1486,-93.1516,c8a21f0b-0d26-4b96-b177-1f1887603f08,,,,,,,,,,,,,,,,,17648
001cv00000AuZT1,"City Of Redwood Falls, MN",Minnesota,Municipality,Nick Martino,5095,,Tier 3,0.75,44.5394,-95.1169,f45ea6ee-b354-4935-930d-fc81662300d9,,,,,,,,,,,,,,,,,17518
001cv00000AuZTX,"County Of Big Stone, MN",Minnesota,County,Nick Martino,5145,,Tier 3,0.75,45.4932,-96.4724,3918a28b-b243-4858-8026-a6c4d9b17966,,,,,,,,,,,,,,,,,17425
001cv00000AuZVg,"Township Of Big Lake, MN",Minnesota,Municipality,Nick Martino,8080,,Tier 3,0.75,45.3325,-93.742,cf69a2f5-b99d-4f2f-bbec-a1ae6b97d3b3,,,,,,,,,,,,,,,,,17722
001cv00000AuZVn,"County Of Murray, MN",Minnesota,County,Nick Martino,8144,,Tier 3,0.75,44.0243,-95.8143,cb60d179-0320-418f-960f-39e3c54fc476,,,,,,,,,,,,,,,,,17660
001cv00000AuZY8,"County Of Clearwater, MN",Minnesota,County,Nick Martino,8576,,Tier 3,0.75,47.7201,-95.3106,ec4883ec-3feb-4d42-b0b3-58334a72db14,,,,,,,,,,,,,,,,,17846
001cv00000AuZYy,"County Of Marshall, MN",Minnesota,County,Nick Martino,8988,,Tier 3,0.75,44.4484,-95.7912,7317f45a-0334-445c-8da5-f5aac748171f,,,,,,,,,,,,,,,,,18487
001cv00000AuZZU,"County Of Pipestone, MN",Minnesota,County,Nick Martino,9313,,Tier 3,0.75,43.9973,-96.3226,89415346-53ac-42d9-8b13-4ad46e4782de,,,,,,,,,,,,,,,,,18388
001cv00000AuZZi,"County Of Yellow Medicine, MN",Minnesota,County,Nick Martino,9411,,Tier 3,0.75,44.738,-95.8565,82f2140b-0bc0-4c37-a0ad-8aebffc8d21e,,,,,,,,,,,,,,,,,18319
001cv00000AuZaZ,"County Of Pope, MN",Minnesota,County,Nick Martino,11403,,Tier 2,1.0,45.5472,-95.4364,0d0f1d5d-1167-48d9-91d0-1fdf85d5dba2,,,,,,,,,,,,,,,,,18374
001cv00000AuZal,"County Of Cottonwood, MN",Minnesota,County,Nick Martino,11569,,Tier 2,1.0,44.6089,-95.6737,e992c419-d903-404e-9861-e0614a774843,,,,,,,,,,,,,,,,,18284
001cv00000AuZbD,"County Of Koochiching, MN",Minnesota,County,Nick Martino,11941,,Tier 2,1.0,48.1816,-93.6483,e30495fd-9f27-4a22-a7c2-6d336c8a12f9,,,,,,,,,,,,,,,,,18355
001cv00000AuZcJ,"County Of Jackson, MN",Minnesota,County,Nick Martino,9990,,Tier 3,0.75,43.6209,-94.9868,00e70c15-bc09-4a02-8cef-1957c1fade10,,,,,,,,,,,,,,,,,18348
001cv00000AuZhA,"County Of Renville, MN",Minnesota,County,Nick Martino,14608,,Tier 2,1.0,44.7891,-95.2117,cbc29219-73d4-4673-a483-af539e53a929,,,,,,,,,,,,,,,,,18264
001cv00000AuZhW,"County Of Sibley, MN",Minnesota,County,Nick Martino,14917,,Tier 2,1.0,44.5502,-94.1514,9c7fa813-8a24-43f2-9ce7-03e501bc81f6,,,,,,,,,,,,,,,,,18124
001cv00000AuZi0,"County Of Redwood, MN",Minnesota,County,Nick Martino,15366,,Tier 2,1.0,44.3516,-95.3102,13c419c5-8166-486f-ab58-961aef6d6bb4,,,,,,,,,17,2026-03-18,17,,,,,,18029
001cv00000AuZiO,"County Of Chippewa, MN",Minnesota,County,Nick Martino,12357,,Tier 2,1.0,45.052,-95.5556,a1151190-4acd-4df2-b45a-63b129039a59,,,,,,,,,,,,,,,,,18149
001cv00000AuZjs,"County Of Rock, MN",Minnesota,County,Nick Martino,9680,,Tier 3,0.75,43.6927,-96.3226,44b9de5f-85e9-4e19-b057-466e2cac686c,,,,,,,,,,,,,,,,,17994
001cv00000AuZjx,"County Of Stevens, MN",Minnesota,County,Nick Martino,9700,,Tier 3,0.75,45.5215,-95.9522,1f5ed022-ae87-4b3c-a2c0-61e55e8627e3,,,,,,,,,,,,,,,,,18042
001cv00000AuZk3,"County Of Swift, MN",Minnesota,County,Nick Martino,9749,,Tier 3,0.75,45.2316,-95.7196,7853247e-c045-4d6e-bea0-629a2eb1ea7e,,,,,,,,,,,,,,,,,18030
001cv00000AuZlk,"County Of Lake, MN",Minnesota,County,Nick Martino,10986,,Tier 2,1.0,47.5964,-91.4965,188e5979-8672-4be5-993f-f319956dc680,,,,,,,,,,,,,,,,,17972
001cv00000AuZlv,"County Of Watonwan, MN",Minnesota,County,Nick Martino,11135,,Tier 2,1.0,43.9323,-94.48,4095d041-0c69-48c3-a43a-b85d9590844f,,,,,,,,,,,,,,,,,18007
001cv00000AuZn7,"County Of Pennington, MN",Minnesota,County,Nick Martino,13780,,Tier 2,1.0,47.4836,-94.48,5e165f41-4e0a-45be-b2a5-72e59ef3c652,,,,,,,,,,,,,,,,,17888
001cv00000AuZnM,"County Of Faribault, MN",Minnesota,County,Nick Martino,13909,,Tier 2,1.0,43.6449,-93.9878,e132f943-4938-499a-8f72-88089ec1ff04,,,,,,,,,,,,,,,,,17934
001cv00000AuZnV,"City Of Fergus Falls, MN",Minnesota,Municipality,Nick Martino,14029,,Tier 2,1.0,46.2835,-96.0778,38f8a7d7-a24c-4f7a-a51b-d61773fe0ec3,Closed Lost,,,Shane Lieberman,6/25/2024,1/5/2025,"$39,000",,25,2026-02-06,23,,,2,,,17893
001cv00000AuZnl,"County Of Wadena, MN",Minnesota,County,Nick Martino,14177,,Tier 2,1.0,46.6416,-94.936,54f82be2-aa42-43bf-a43f-16ae404a3512,,,,,,,,,3,2025-10-13,3,,,,,,17869
001cv00000AuZpF,"County Of Kanabec, MN",Minnesota,County,Nick Martino,16159,,Tier 2,1.0,45.9329,-93.2884,89585e6a-619a-4a2f-835d-6a2236b88785,,,,,,,,,,,,,,,,,17877
001cv00000AuZse,"County Of Houston, MN",Minnesota,County,Nick Martino,18778,,Tier 2,1.0,43.7633,-91.5685,90f195ca-2fb1-40b8-8e11-6ab6dcd1f8ac,,,,,,,,,,,,,,,,,18609
001cv00000AuZsr,"County Of Waseca, MN",Minnesota,County,Nick Martino,19000,,Tier 2,1.0,43.9614,-93.6623,7b3febc8-e001-4d9f-9247-8ae3c90d7d42,,,,,,,,,,,,,,,,,18630
001cv00000AuZxO,"County Of Dodge, MN",Minnesota,County,Nick Martino,20935,,Tier 2,1.0,43.9843,-92.8577,1fa93fb4-bd82-4752-a0ed-b734776dbc8b,,,,,,,,,,,,,,,,,18698
001cv00000AuZxf,"County Of Fillmore, MN",Minnesota,County,Nick Martino,21271,,Tier 2,1.0,43.7486,-92.2682,d2d0b220-ef08-420a-a546-10ecff844d28,,,,,,,,,,,,,,,,,19021
001cv00000AuZxt,"County Of Wabasha, MN",Minnesota,County,Nick Martino,21509,,Tier 2,1.0,44.3021,-92.2237,d4aefc07-23a3-4e0f-968b-efde4ce51f4c,,,,,,,,,4,2026-05-18,4,,,,,,19030
001cv00000AuZy3,"County Of Hubbard, MN",Minnesota,County,Nick Martino,21715,,Tier 2,1.0,47.1861,-94.9411,4d5cceec-7303-4714-a699-f22c68a65e70,,,,,,,,,,,,,,,,,19017
001cv00000Aua11,"County Of Pine, MN",Minnesota,County,Nick Martino,29302,,Tier 1,1.5,46.0983,-92.8071,22188cb7-03c5-466f-b646-d8fd840d3e2f,,,,,,,,,5,2026-03-10,5,,,,,,18904
001cv00000Aua2f,"County Of Lyon, MN",Minnesota,County,Nick Martino,25231,,Tier 1,1.5,44.3981,-95.8987,e6e30208-5e3c-4aa7-a775-f0975006f84c,,,,,,,,,,,,,,,,,19381
001cv00000Aua2g,"County Of Todd, MN",Minnesota,County,Nick Martino,25237,,Tier 1,1.5,46.0308,-94.8315,6bc4c906-9e71-485b-bb18-1927f295e7c8,,,,,,,,,,,,,,,,,19411
001cv00000Aua3K,"County Of Martin, MN",Minnesota,County,Nick Martino,19915,,Tier 2,1.0,43.6267,-94.48,67cc6ed1-1dfd-442e-8ad8-dd4eac6fc405,,,,,,,,,,,,,,,,,18600
001cv00000Aua5t,"County Of Morrison, MN",Minnesota,County,Nick Martino,33992,,Tier 1,1.5,45.9846,-94.0525,211368bf-98e7-42d0-9815-86dfe63616f5,,,,,,,,,,,,,,,,,19332
001cv00000Aua67,"County Of Nicollet, MN",Minnesota,County,Nick Martino,34332,,Tier 1,1.5,44.3573,-94.2744,66fdc41e-65c2-4e5c-a3e0-87f54422f13e,,,,,,,,,,,,,,,,,19384
001cv00000Aua7M,"County Of Douglas, MN",Minnesota,County,Nick Martino,39238,,Tier 1,1.5,44.108,-92.5738,65ad1e23-ebfc-43eb-b8b0-aa7151f4dc7d,,,,,,,,,,,,,,,,,19283
001cv00000Aua7h,"County Of Mower, MN",Minnesota,County,Nick Martino,40158,,Tier 1,1.5,43.6825,-92.6984,db4aadfb-d78e-463b-8873-42caa7f87467,,,,,,,,,,,,,,,,,19256
001cv00000Aua7y,"County Of Cass, MN",Minnesota,County,Nick Martino,30639,,Tier 1,1.5,47.2145,-94.2309,8923b896-134b-4779-9d94-84c94a26c7ab,,,,,,,,,,,,,,,,,18956
001cv00000Aua82,"County Of Freeborn, MN",Minnesota,County,Nick Martino,30749,,Tier 1,1.5,43.6656,-93.3389,df2a892d-0397-4a35-bc4d-c9abc450c9c6,,,,,,,,,3,2026-02-26,3,,,,,,18890
001cv00000Aua83,"County Of Polk, MN",Minnesota,County,Nick Martino,30757,Open Opportunity,Tier 1,1.5,47.6635,-96.4171,e66e77be-2115-408c-b675-5d1fb9ecd0b3,Open,Sales Qualified,Mid Funnel,Nick Martino,4/7/2026,3/5/2026,,,3,2026-03-05,3,,,,,,18910
001cv00000Aua9Z,"County Of Nobles, MN",Minnesota,County,Nick Martino,21991,,Tier 2,1.0,43.7197,-95.8143,fdb79b9c-d36b-49e2-906a-69d67a869f93,,,,,,,,,,,,,,,,,18676
001cv00000AuaAO,"County Of Meeker, MN",Minnesota,County,Nick Martino,23376,,Tier 2,1.0,45.1353,-94.5151,162f71e2-17df-44f8-b153-452f58d983eb,,,,,,,,,,,,,,,,,18916
001cv00000AuaB9,"County Of Brown, MN",Minnesota,County,Nick Martino,25819,,Tier 1,1.5,44.2294,-94.645,99645f99-dc64-4fe1-b4c6-deddaaa8faa4,,,,,,,,,,,,,,,,,19133
001cv00000AuaBi,"County Of Mille Lacs, MN",Minnesota,County,Nick Martino,26867,,Tier 1,1.5,45.9228,-93.6219,cb704009-2260-4f60-a985-45c683e26dc9,,,,,,,,,,,,,,,,,19172
001cv00000AuaCt,"County Of Becker, MN",Minnesota,County,Nick Martino,35219,,Tier 1,1.5,46.9165,-95.7037,9a08099e-4f4a-42ed-8da7-3e20c0296619,,,,,,,,,,,,,,,,,19020
001cv00000AuaDN,"County Of Carlton, MN",Minnesota,County,Nick Martino,36409,,Tier 1,1.5,46.5619,-92.6847,b13a32ad-d800-4b5e-9ed5-b1f4a7450e29,,,,,,,,,,,,,,,,,19680
001cv00000AuaDa,"County Of Mcleod, MN",Minnesota,County,Nick Martino,36735,,Tier 1,1.5,44.844,-94.3154,efca2bee-b266-48a8-85a7-bbae64de21fd,,,,,,,,,,,,,,,,,19084
001cv00000AuaDt,"County Of Steele, MN",Minnesota,County,Nick Martino,37349,,Tier 1,1.5,43.9759,-93.178,165f25bb-a465-4e94-9712-63ecab685d37,,,,,,,,,,,,,,,,,19230
001cv00000AuaGI,"County Of Isanti, MN",Minnesota,County,Nick Martino,41906,,Tier 1,1.5,45.6301,-93.2537,238b8b36-3115-4e37-acdb-051a2f6eafe9,,,,,,,,,,,,,,,,,19059
001cv00000AuaHT,"County Of Itasca, MN",Minnesota,County,Nick Martino,45070,,Tier 1,1.5,47.5508,-93.5684,e9386db8-5bdb-44bc-92bf-328188f668db,,,,,,,,,,,,,,,,,19298
001cv00000AuaJt,"County Of Beltrami, MN",Minnesota,County,Nick Martino,46380,,Tier 1,1.5,48.1419,-94.7391,4ae06c1d-815b-4b3d-b2bc-33c04a732ba7,,,,,,,,,,,,,,,,,19536
001cv00000AuaKI,"County Of Goodhue, MN",Minnesota,County,Nick Martino,47968,Nurture,Tier 1,1.5,44.443,-92.6984,1369f33a-782f-4e45-a275-8172277dd566,Closed Lost,,,Leila Assil,5/14/2025,5/13/2025,,,32,2025-12-16,32,,,,,,19541
001cv00000AuaNk,"County Of Chisago, MN",Minnesota,County,Nick Martino,57469,,Tier S,2.0,45.5248,-92.955,2e66bc57-e5f5-49c5-919b-07a19d0952a0,,,,,,,,,11,2026-05-15,4,7,,,,,19532
001cv00000AuaPB,"County Of Clay, MN",Minnesota,County,Nick Martino,65574,,Tier S,2.0,46.8782,-96.4258,2d4955a4-4606-4414-a79a-af64927a3066,,,,,,,,,,,,,,,,,19713
001cv00000AuaPZ,"County Of Rice, MN",Minnesota,County,Nick Martino,67262,,Tier S,2.0,45.7529,-94.2223,73c459c1-726b-419a-8842-3c1cb0cf3d48,,,,,,,,,,,,,,,,,19710
001cv00000AuaPa,"County Of Crow Wing, MN",Minnesota,County,Nick Martino,67270,,Tier S,2.0,46.5958,-94.1402,d1bdbd7f-9db6-4f9a-a6cf-86a0cf8fcc5e,,,,,,,,,,,,,,,,,19728
001cv00000AuaXs,"City Of Eagan, MN",Minnesota,Municipality,Nick Martino,68642,,Tier S,2.0,44.8041,-93.1669,a5f43368-ce45-40e0-97c7-991bc041a986,,,,,,,,,10,2025-08-29,10,,,,,,19734
001cv00000B21qI,"City Of Rockville, MN",Minnesota,Municipality,Nick Martino,2398,,Tier 3,0.75,45.4753,-94.3347,839e080d-ddf1-4e3f-878d-77d0febb1b06,,,,,,,,,,,,,,,,,20164
001cv00000B21qz,"City Of Wells, MN",Minnesota,Municipality,Nick Martino,2418,,Tier 3,0.75,43.7452,-93.7238,8cc51d2c-c3be-40ad-9bdb-8951f8e7f546,,,,,,,,,,,,,,,,,20172
001cv00000B21rD,"City Of Pequot Lakes, MN",Minnesota,Municipality,Nick Martino,2421,,Tier 3,0.75,46.603,-94.3094,053f94dc-1847-436e-adb3-a9d5def31b43,,,,,,,,,,,,,,,,,20139
001cv00000B21rj,"Township Of Grant Valley, MN",Minnesota,Municipality,Nick Martino,2433,,Tier 3,0.75,47.438,-95.0078,a1952d88-c1f7-4709-b68e-d2dfe4b83340,,,,,,,,,,,,,,,,,20333
001cv00000B21rs,"City Of Janesville, MN",Minnesota,Municipality,Nick Martino,2437,,Tier 3,0.75,44.1162,-93.7077,4e5fff8b-d554-4ee3-b9be-7844d61f94df,,,,,,,,,,,,,,,,,20314
001cv00000B21s7,"City Of Spring Valley, MN",Minnesota,Municipality,Nick Martino,2441,,Tier 3,0.75,43.6844,-92.3962,a211e4c5-bc63-4a0d-90af-c7bb40dfe8b4,,,,,,,,,,,,,,,,,20240
001cv00000B21sH,"City Of Crosslake, MN",Minnesota,Municipality,Nick Martino,2445,,Tier 3,0.75,46.6594,-94.1139,23976a17-158e-4e9f-a4ef-4cb4684ddb36,,,,,,,,,,,,,,,,,20272
001cv00000B21xS,"Township Of May, MN",Minnesota,Municipality,Nick Martino,2650,,Tier 3,0.75,45.1506,-92.8338,85171103-4643-4931-812f-adf61f0847a5,,,,,,,,,,,,,,,,,20405
001cv00000B21y6,"City Of Glenwood, MN",Minnesota,Municipality,Nick Martino,2664,,Tier 3,0.75,45.6502,-95.39,fc597e8b-26bd-48d5-9a2e-552a4d0f6d54,,,,,,,,,,,,,,,,,20391
001cv00000B21yK,"City Of Breezy Point, MN",Minnesota,Municipality,Nick Martino,2671,,Tier 3,0.75,46.5897,-94.2175,b91ff70d-a68c-47a1-9356-703ee57fad73,,,,,,,,,,,,,,,,,20454
001cv00000B220G,"City Of Rockford, MN",Minnesota,Municipality,Nick Martino,4592,,Tier 3,0.75,45.0873,-93.7415,6f074f42-51f6-4ea8-86a5-f0f64bc790c8,,,,,,,,,4,2025-07-10,4,,,,,,20493
001cv00000B220Q,"City Of Sauk Centre, MN",Minnesota,Municipality,Nick Martino,4599,,Tier 3,0.75,45.7375,-94.9525,006c6c4e-a48d-4e73-b011-2a47a6bde81f,,,,,,,,,3,2025-07-01,3,,,,,,20497
001cv00000B220w,"City Of Dilworth, MN",Minnesota,Municipality,Nick Martino,4634,,Tier 3,0.75,46.8773,-96.6963,e3d775b3-10c8-492a-b4ac-fcb0abbcdcdf,,,,,,,,,8,2025-07-14,8,,,,,,20561
001cv00000B222D,"City Of Chisholm, MN",Minnesota,Municipality,Nick Martino,4723,,Tier 3,0.75,47.4891,-92.8838,ac1e1716-104f-4218-a192-9e4784cffdb2,,,,,,,,,1,2025-06-30,1,,,,,,20631
001cv00000B222L,"City Of St James, MN",Minnesota,Municipality,Nick Martino,4727,,Tier 3,0.75,43.9821,-94.6283,a7a57516-aba5-4043-a19a-5aedea293960,,,,,,,,,2,2025-06-30,2,,,,,,20634
001cv00000B222W,"City Of Oak Park Heights, MN",Minnesota,Municipality,Nick Martino,4750,,Tier 3,0.75,45.0314,-92.793,20d42b11-d6a2-47d1-8641-8a03358f5673,,,,,,,,,8,2025-07-16,8,,,,,,20610
001cv00000Gg13V,"County of Aitkin, MN",Minnesota,County,Nick Martino,16335,Nurture,Tier 2,1.0,46.6185,-93.4537,0a1eef8c-bdc3-4563-b69b-36fb230471b4,Closed Lost,,,Nick Martino,11/7/2025,10/29/2025,,,16,2025-11-05,16,,,,,,20778
001cv00000VotsL,"City of Saint Paul, MN",Minnesota,Municipality,Nick Martino,307465,,Tier S,2.0,44.9537,-93.09,,,,,,,,,,4,2026-01-27,4,,,,,,20999
001cv00000bBVew,Township of Maple Grove,Minnesota,Municipality,Asher Rosenfeld,752,,Tier 3,0.75,47.0891,-95.7611,3d9f7f10-5dc5-4e13-869f-8fc8706c6ab5,,,,,,,,,,,,,,,,,21147
001cv00000bBVfk,City of Isle,Minnesota,Municipality,Asher Rosenfeld,827,,Tier 3,0.75,46.138,-93.4708,5a1d1e73-85a1-4c94-ab03-a24d9dcd9be6,,,,,,,,,,,,,,,,,21181
001cv00000bBVir,City of Pine River,Minnesota,Municipality,Asher Rosenfeld,925,,Tier 3,0.75,46.718,-94.4042,2959595b-d5f4-45a2-93ab-441610050bbd,,,,,,,,,,,,,,,,,21307
001cv00000bBVwY,City of New Richland,Minnesota,Municipality,Asher Rosenfeld,1189,,Tier 3,0.75,43.8944,-93.4919,dc7d0218-a139-418a-9f0d-67a0ff74f22e,,,,,,,,,,,,,,,,,21628
001cv00000bBVwx,City of Mahnomen,Minnesota,Municipality,Asher Rosenfeld,1216,,Tier 3,0.75,47.3173,-95.9655,d42dc994-af93-4bcc-be21-1c148195cd56,,,,,,,,,,,,,,,,,21603
001cv00000bBVy7,Township of Wheatland,Minnesota,Municipality,Asher Rosenfeld,1298,,Tier 3,0.75,44.5162,-93.4801,46147365-d427-417a-8298-6429bf78fa01,,,,,,,,,,,,,,,,,21680
001cv00000bBVyC,City of Grand Marais,Minnesota,Municipality,Asher Rosenfeld,1306,,Tier 3,0.75,47.7504,-90.3343,516bd28d-c852-4103-90dd-4d5ced39e772,,,,,,,,,,,,,,,,,21710
001cv00000bBW44,Township of Franconia,Minnesota,Municipality,Asher Rosenfeld,1756,,Tier 3,0.75,45.3702,-92.6916,81da0a49-0577-408f-94b8-21a80961b3e2,,,,,,,,,,,,,,,,,21751
001cv00000bBWBk,City of Warren,Minnesota,Municipality,Asher Rosenfeld,1549,,Tier 3,0.75,48.1966,-96.7728,94c332b5-6bc5-4d3d-8745-05ad273a2205,,,,,,,,,,,,,,,,,21899
001cv00000bBWDS,City of Slayton,Minnesota,Municipality,Asher Rosenfeld,1967,,Tier 3,0.75,43.9877,-95.7558,9a35197d-6c8f-45e3-b2a6-865a0542409b,,,,,,,,,,,,,,,,,22078
001cv00000bBWDj,City of Warroad,Minnesota,Municipality,Asher Rosenfeld,1983,,Tier 3,0.75,48.9053,-95.3144,b6216e71-4392-4976-849a-ea4855482d7e,,,,,,,,,,,,,,,,,22042
001cv00000bBWIr,City of Silver Bay,Minnesota,Municipality,Asher Rosenfeld,1776,,Tier 3,0.75,47.2944,-91.2574,751180a7-4bfb-41e2-83d8-f23c8bd75e61,,,,,,,,,,,,,,,,,21756
001cv00000bBWJx,City of Rushford,Minnesota,Municipality,Asher Rosenfeld,1852,,Tier 3,0.75,43.811,-91.749,6b426ee9-7cb3-4b5a-989f-018e289058d6,,,,,,,,,,,,,,,,,21835
001cv00000bBWKB,City of Kenyon,Minnesota,Municipality,Asher Rosenfeld,1872,,Tier 3,0.75,44.2722,-92.9855,23461f4c-badc-43f9-be7b-491e575007d0,,,,,,,,,,,,,,,,,21828
001cv00000bBWKo,City of Hinckley,Minnesota,Municipality,Asher Rosenfeld,1918,,Tier 3,0.75,46.015,-92.9389,4c5e11c8-b897-4572-9785-201eb6454ef2,,,,,,,,,,,,,,,,,21886
001cv00000bBWMQ,Roseau County,Minnesota,County,Asher Rosenfeld,15265,,Tier 2,1.0,48.7249,-95.9821,6461225d-4d3d-4e18-b92e-d795b304cb39,,,,,,,,,,,,,,,,,21954
001cv00000bBWOJ,City of Maple Plain,Minnesota,Municipality,Asher Rosenfeld,1648,,Tier 3,0.75,45.0068,-93.6555,759d27c4-c9c8-4596-bc9f-29dc17189567,,,,,,,,,,,,,,,,,22096
001cv00000bBWOT,City of Canby,Minnesota,Municipality,Asher Rosenfeld,1664,,Tier 3,0.75,44.7089,-96.2764,2cb86c45-4dc2-43af-a796-0af8004f73f3,,,,,,,,,,,,,,,,,22128
001cv00000bBWOz,City of Ada,Minnesota,Municipality,Asher Rosenfeld,1696,,Tier 3,0.75,47.2997,-96.5153,be239837-2ab0-44b0-bbc2-8cc96fd6b015,,,,,,,,,,,,,,,,,22151
001cv00000bBWSV,City of Rochester,Minnesota,Municipality,Asher Rosenfeld,123624,,Tier S,2.0,44.0193,-92.4588,78618c13-3f20-40b9-8dd6-8bd64908b436,,,,,,,,,,,,,,,,,22324
001cv00000bBWXt,Ramsey County,Minnesota,County,Asher Rosenfeld,542015,,Tier S,2.0,44.9964,-93.0616,f3926e7a-3251-41f2-b2d8-f9411d184068,,,,,,,,,,,,,,,,,22456
001cv00000bBWZL,Hennepin County,Minnesota,County,Asher Rosenfeld,1273334,,Tier S,2.0,45.0209,-93.5095,8f0e65ce-8b7a-4dfc-8e32-d39af94c48d4,,,,,,,,,,,,,,,,,22534
001cv00000bBWsn,City of Wheaton,Minnesota,Municipality,Asher Rosenfeld,1334,,Tier 3,0.75,45.8044,-96.4992,c0559d30-db25-409a-a6df-a355c77cd2e9,,,,,,,,,,,,,,,,,22597
001cv00000bBWt2,City of Appleton,Minnesota,Municipality,Asher Rosenfeld,1352,,Tier 3,0.75,45.1992,-96.0244,170d2df7-33ad-4fdb-99c8-53a8a6bcc7c6,,,,,,,,,,,,,,,,,22622
001cv00000bBWtB,City of Menahga,Minnesota,Municipality,Asher Rosenfeld,1366,,Tier 3,0.75,46.7495,-95.1,e564b5cd-2bde-473c-bb4a-ae40d1b978f3,,,,,,,,,,,,,,,,,22621
001cv00000bBWue,City of Madison,Minnesota,Municipality,Asher Rosenfeld,1488,,Tier 3,0.75,45.0114,-96.1932,e3429761-694c-4ac4-b6e6-0555600d20d4,,,,,,,,,,,,,,,,,22693
001cv00000bBX0n,Anoka County,Minnesota,County,Asher Rosenfeld,376840,,Tier S,2.0,45.3293,-93.2197,190e23af-324e-4b0b-bc7b-4b85fd8ed68d,,,,,,,,,,,,,,,,,22833
001cv00000bBX1C,Dakota County,Minnesota,County,Asher Rosenfeld,453156,,Tier S,2.0,44.7316,-93.178,ba666fb3-070a-426d-a0db-c86fb61eefcf,,,,,,,,,1,2026-05-13,,,1,,,,22859
